,coord_lon,coord_lat,weather_0_id,weather_0_main,weather_0_description,weather_0_icon,base,main_temp,main_feels_like,main_temp_min,main_temp_max,main_pressure,main_humidity,main_sea_level,main_grnd_level,wind_speed,wind_deg,clouds_all,dt,sys_country,sys_sunrise,sys_sunset,timezone,id,name,cod,snow_3h,weather_1_id,weather_1_main,weather_1_description,weather_1_icon,visibility,sys_type,sys_id,rain_3h,wind_gust,rain_1h,weather_2_id,weather_2_main,weather_2_description,weather_2_icon,snow_1h
chokurdakh,147.9,70.62,801,Clouds,few clouds,02n,model,240.39,234.79,240.39,240.39,1012,95,1012,1010,2.46,206,23,1578455758,RU,0,0,39600,2126123,Chokurdakh,200,,,,,,,,,,,,,,,,
nanortalik,-45.24,60.14,601,Snow,snow,13n,model,272.09,258.17,272.09,272.09,990,69,990,984,16.01,254,100,1578455759,GL,1578484768,1578507300,-10800,3421765,Nanortalik,200,1.94,,,,,,,,,,,,,,,
hasaki,140.83,35.73,522,Rain,heavy intensity shower rain,09d,stations,278.22,273.12,277.59,279.15,999,100,,,5.7,310,75,1578455759,JP,1578433618,1578469110,32400,2112802,Hasaki,200,,701,Mist,mist,50d,1400,1,7955,,,,,,,,
ushuaia,-68.31,-54.81,301,Drizzle,drizzle,09n,stations,281.15,277.92,281.15,281.15,981,93,,,3.6,90,90,1578455759,AR,1578470979,1578532166,-10800,3833367,Ushuaia,200,,,,,,10000,1,8303,,,,,,,,
tolyatti,49.41,53.52,600,Snow,light snow,13n,stations,266.15,262.02,266.15,266.15,1029,92,,,1.76,107,90,1578455760,RU,1578459378,1578487244,14400,482283,Tolyatti,200,,,,,,7000,1,9051,,,,,,,,
tura,100.22,64.27,800,Clear,clear sky,01d,model,252.61,247.49,252.61,252.61,1021,94,1021,970,2.13,225,0,1578455760,RU,1578452661,1578469566,25200,2014833,Tura,200,,,,,,,,,,,,,,,,
oranjestad,-70.03,12.52,802,Clouds,scattered clouds,03n,stations,300.15,299.79,300.15,300.15,1014,83,,,8.7,90,40,1578455760,AW,1578395000,1578436120,-14400,3577154,Oranjestad,200,,,,,,10000,1,8791,,,,,,,,
boyuibe,-63.28,-20.43,500,Rain,light rain,10n,model,292.98,295.33,292.98,292.98,1010,94,1010,881,1.16,263,100,1578455761,BO,1578389985,1578437894,-14400,3923015,Boyuibe,200,,,,,,,,,0.56,,,,,,,
abha,42.5,18.22,802,Clouds,scattered clouds,03d,stations,286.67,282.42,286.15,287.15,1024,87,,,6.7,190,40,1578455761,SA,1578455006,1578494934,10800,110690,Abha,200,,,,,,10000,1,7396,,,,,,,,
rawson,-65.11,-43.3,800,Clear,clear sky,01n,model,292.07,285.52,292.07,292.07,994,50,994,993,8.79,231,1,1578455761,AR,1578473429,1578528180,-10800,3839307,Rawson,200,,,,,,,,,,,,,,,,
boca do acre,-67.39,-8.76,803,Clouds,broken clouds,04n,model,297.49,301.14,297.49,297.49,1010,84,1010,993,1.09,347,56,1578455762,BR,1578392233,1578437619,-14400,3664956,Boca do Acre,200,,,,,,,,,,,,,,,,
caravelas,-39.27,-17.73,803,Clouds,broken clouds,04n,model,296.15,298.4,296.15,296.15,1013,94,1013,1005,3.49,22,59,1578455762,BR,1578470964,1578518237,-10800,3466980,Caravelas,200,,,,,,,,,,,,,,,,
iqaluit,-68.52,63.75,600,Snow,light snow,13n,stations,245.26,239.56,245.15,245.37,1001,61,,,2.6,340,90,1578455762,CA,1578406371,1578424024,-18000,5983720,Iqaluit,200,,,,,,19312,1,797,,,,,,,,
rincon,-82.28,8.46,800,Clear,clear sky,01n,model,295.14,296.37,295.14,295.14,1014,73,1014,990,1.6,8,0,1578455763,PA,1578397526,1578439475,-18000,3711668,Rincon,200,,,,,,,,,,,,,,,,
khatanga,102.47,71.98,600,Snow,light snow,13n,model,257.79,251.23,257.79,257.79,1007,95,1007,1003,4.48,247,100,1578455763,RU,0,0,25200,2022572,Khatanga,200,0.31,,,,,,,,,,,,,,,
severo-kurilsk,156.12,50.68,600,Snow,light snow,13d,model,267.51,259.4,267.51,267.51,1003,83,1003,963,7.44,306,73,1578455763,RU,1578432941,1578462445,39600,2121385,Severo-Kurilsk,200,0.38,,,,,,,,,,,,,,,
general roca,-67.58,-39.03,800,Clear,clear sky,01n,stations,296.15,290.4,296.15,296.15,1002,28,,,6.2,250,0,1578455764,AR,1578474845,1578527949,-10800,3855065,General Roca,200,,,,,,10000,1,8310,,,,,,,,
qaanaaq,-69.36,77.48,802,Clouds,scattered clouds,03n,model,241.52,236.81,241.52,241.52,988,77,988,948,1.17,86,30,1578455764,GL,0,0,-14400,3831208,Qaanaaq,200,,,,,,,,,,,,,,,,
hobyo,48.53,5.35,804,Clouds,overcast clouds,04d,model,297.73,297.57,297.73,297.73,1013,79,1013,1006,5.99,33,100,1578455764,SO,1578452235,1578494810,10800,57000,Hobyo,200,,,,,,,,,,,,,,,,
yellowknife,-114.38,62.45,800,Clear,clear sky,01n,stations,235.15,229.73,235.15,235.15,1022,73,,,2.1,40,5,1578455765,CA,1578416397,1578436017,-25200,6185377,Yellowknife,200,,,,,,24140,1,1007,,,,,,,,
albany,-73.75,42.65,804,Clouds,overcast clouds,04n,stations,271.72,268.11,269.82,273.71,1012,68,,,1.21,61,90,1578455521,US,1578399896,1578433009,-18000,5106834,Albany,200,,,,,,16093,1,3273,,,,,,,,
puerto ayora,-90.35,-0.74,500,Rain,light rain,10n,stations,297.59,300.5,297.59,297.59,1012,81,,,1.79,90,32,1578455765,EC,1578398549,1578442327,-21600,3652764,Puerto Ayora,200,,,,,,,3,2005652,0.13,3.13,,,,,,
tolstoy-yurt,45.77,43.44,701,Mist,mist,50n,stations,272.15,268.2,272.15,272.15,1018,100,,,2.61,261,100,1578455766,RU,1578457758,1578490613,10800,482309,Tolstoy-Yurt,200,,,,,,5000,1,8964,,,,,,,,
new norfolk,147.06,-42.78,801,Clouds,few clouds,02d,stations,295.49,289.75,294.15,297.59,1018,49,,,8.7,160,20,1578455766,AU,1578422579,1578477158,39600,2155415,New Norfolk,200,,,,,,10000,1,9545,,,,,,,,
thompson,-97.86,55.74,801,Clouds,few clouds,02n,stations,247.15,241.51,247.15,247.15,1022,75,,,2.6,300,20,1578455767,CA,1578409106,1578435376,-21600,6165406,Thompson,200,,,,,,24140,1,935,,,,,,,,
clyde river,-68.59,70.47,804,Clouds,overcast clouds,04n,stations,248.15,243,248.15,248.15,989,62,,,1.88,230,90,1578455767,CA,0,0,-18000,5924351,Clyde River,200,,,,,,14484,1,776,,,,,,,,
havoysund,24.66,71,804,Clouds,overcast clouds,04n,stations,275.15,257.4,275.15,275.15,973,74,,,22.1,190,100,1578455767,NO,0,0,3600,779622,Havoysund,200,,,,,,10000,1,1632,,27.3,,,,,,
hilo,-155.08,19.71,803,Clouds,broken clouds,04d,stations,293.1,289.25,280.37,300.15,1019,54,,,5.7,50,75,1578455629,US,1578416183,1578455773,-36000,5855927,Hilo,200,,,,,,16093,1,7881,,,,,,,,
vanimo,141.3,-2.67,501,Rain,moderate rain,10d,model,300.32,299.33,300.32,300.32,1007,84,1007,1007,9.91,288,100,1578455768,PG,1578429172,1578473331,36000,2084442,Vanimo,200,,,,,,,,,6.75,,,,,,,
urengoy,78.37,65.96,804,Clouds,overcast clouds,04n,model,253.98,247.74,253.98,253.98,1017,96,1017,1013,3.81,245,96,1578455768,RU,1578459634,1578473084,18000,1488414,Urengoy,200,,,,,,,,,,,,,,,,
saldanha,-6.55,41.42,801,Clouds,few clouds,02n,model,276.15,273.55,276.15,276.15,1031,75,1031,954,0.67,23,21,1578455768,PT,1578469932,1578503559,0,2737599,Saldanha,200,,,,,,,,,,,,,,,,
pangkalanbuun,111.62,-2.68,804,Clouds,overcast clouds,04d,model,305.01,309.78,305.01,305.01,1009,61,1009,1007,0.99,332,100,1578455719,ID,1578436296,1578480457,25200,1632694,Pangkalanbuun,200,,,,,,,,,,,,,,,,
jamestown,138.6,-33.21,800,Clear,clear sky,01d,model,304.58,301.23,304.58,304.58,1013,20,1013,958,3.39,77,0,1578455769,AU,1578426282,1578477517,37800,2069194,Jamestown,200,,,,,,,,,,,,,,,,
saint george,22.34,39.45,802,Clouds,scattered clouds,03n,stations,270.62,266.89,267.15,274.82,1026,79,,,1.5,,40,1578455769,GR,1578462653,1578496967,7200,262462,Saint George,200,,,,,,10000,1,6607,,,,,,,,
zyryanka,150.89,65.73,802,Clouds,scattered clouds,03d,model,242.41,236.62,242.41,242.41,1013,76,1013,1006,2.73,171,45,1578455769,RU,1578441984,1578455914,39600,2119283,Zyryanka,200,,,,,,,,,,,,,,,,
bluff,149.07,-23.58,800,Clear,clear sky,01d,model,306.42,302.65,306.42,306.42,1011,25,1011,992,5.67,107,2,1578455770,AU,1578425064,1578473708,36000,2175403,Bluff,200,,,,,,,,,,,,,,,,
rikitea,-134.97,-23.12,800,Clear,clear sky,01n,model,298.22,297.06,298.22,298.22,1017,80,1017,1016,7.9,110,0,1578455770,PF,1578406880,1578455420,-32400,4030556,Rikitea,200,,,,,,,,,,,,,,,,
katsuura,134.5,33.93,801,Clouds,few clouds,02d,stations,288.48,274.64,286.15,290.15,1003,42,,,17.5,290,20,1578455770,JP,1578434870,1578470898,32400,1865309,Katsuura,200,,,,,,10000,1,8027,,26.7,,,,,,
ribeira grande,-28.7,38.52,803,Clouds,broken clouds,04n,model,289.38,285.52,289.38,289.38,1027,92,1027,1003,7.79,200,60,1578455770,PT,1578474746,1578509380,-3600,3372707,Ribeira Grande,200,,,,,,,,,,,,,,,,
mataura,168.86,-46.19,804,Clouds,overcast clouds,04d,stations,288.71,285.28,288.71,288.71,1015,69,,,4.92,212,97,1578455640,NZ,1578416590,1578472679,46800,6201424,Mataura,200,,,,,,,3,2008959,,8.49,,,,,,
krasnyy chikoy,108.75,50.36,800,Clear,clear sky,01d,model,254.66,250.65,254.66,254.66,1033,92,1033,901,0.63,151,0,1578455771,RU,1578444221,1578473910,32400,2012349,Krasnyy Chikoy,200,,,,,,,,,,,,,,,,
boa vista,-60.67,2.82,800,Clear,clear sky,01n,stations,300.15,301.6,300.15,300.15,1013,65,,,3.1,80,0,1578455657,BR,1578391776,1578434849,-14400,3664980,Boa Vista,200,,,,,,10000,1,8340,,,,,,,,
atuona,-139.03,-9.8,801,Clouds,few clouds,02n,model,300.63,300.71,300.63,300.63,1010,73,1010,1009,6.75,89,21,1578455771,PF,1578409326,1578454923,-34200,4020109,Atuona,200,,,,,,,,,,,,,,,,
punta arenas,-70.91,-53.16,804,Clouds,overcast clouds,04n,stations,282.1,275.93,282.04,282.15,980,76,,,7.2,270,100,1578455772,CL,1578472204,1578532189,-10800,3874787,Punta Arenas,200,,,,,,10000,1,8487,,,,,,,,
cherskiy,161.3,68.75,800,Clear,clear sky,01n,model,244.33,237.62,244.33,244.33,1014,73,1014,1012,4.06,149,3,1578455772,RU,0,0,39600,2126199,Cherskiy,200,,,,,,,,,,,,,,,,
mae ramat,98.52,16.98,804,Clouds,overcast clouds,04d,stations,298.15,300.95,298.15,298.15,1016,69,,,0.56,157,100,1578455772,TH,1578441425,1578481618,25200,1152202,Mae Ramat,200,,,,,,7000,1,9262,,,,,,,,
hithadhoo,73.08,-0.6,500,Rain,light rain,10d,model,301.11,302.53,301.11,301.11,1011,78,1011,1011,6.08,44,100,1578455773,MV,1578445754,1578489503,18000,1282256,Hithadhoo,200,,,,,,,,,2.13,,,,,,,
igarka,86.57,67.47,600,Snow,light snow,13n,model,255.58,248.69,255.58,255.58,1015,96,1015,1009,4.83,188,100,1578455773,RU,1578460018,1578468763,25200,1505991,Igarka,200,0.56,,,,,,,,,,,,,,,
camacha,-16.33,33.08,802,Clouds,scattered clouds,03n,stations,289.15,285.7,289.15,289.15,1031,63,,,4.6,50,40,1578455773,PT,1578470947,1578507240,0,2270385,Camacha,200,,,,,,10000,1,6902,,,,,,,,
sao joao da barra,-41.05,-21.64,802,Clouds,scattered clouds,03n,model,298.41,300.02,298.41,298.41,1011,91,1011,1009,5.75,32,40,1578455773,BR,1578470946,1578519110,-10800,3448903,Sao Joao da Barra,200,,,,,,,,,,,,,,,,
nikolskoye,30.79,59.7,804,Clouds,overcast clouds,04n,stations,276,272.03,275.93,276.15,1013,86,,,3,220,90,1578455774,RU,1578466307,1578489256,10800,546105,Nikolskoye,200,,,,,,10000,1,8926,,,,,,,,
roma,12.48,41.89,804,Clouds,overcast clouds,04n,stations,277.94,274.79,275.37,280.37,1025,67,,,1.5,10,98,1578455620,IT,1578465452,1578498903,3600,6539761,Rome,200,,,,,,10000,1,6792,,,,,,,,
arraial do cabo,-42.02,-22.97,802,Clouds,scattered clouds,03n,stations,298.15,302.9,298.15,298.15,1010,94,,,1.5,20,40,1578455774,BR,1578471021,1578519501,-10800,3471451,Arraial do Cabo,200,,,,,,10000,1,8343,,,,,,,,
tiksi,128.87,71.64,804,Clouds,overcast clouds,04n,model,249.89,244.41,249.89,249.89,1008,90,1008,991,2.51,234,100,1578455775,RU,0,0,32400,2015306,Tiksi,200,,,,,,,,,,,,,,,,
muroto,134.14,33.37,803,Clouds,broken clouds,04d,stations,289.15,280.81,289.15,289.15,1006,48,,,10.3,270,75,1578455775,JP,1578434875,1578471065,32400,1856392,Muroto,200,,,,,,10000,1,8021,,18,,,,,,
axim,-2.24,4.87,804,Clouds,overcast clouds,04n,model,296.8,300.18,296.8,296.8,1011,84,1011,1003,1,272,100,1578455775,GH,1578464376,1578507046,0,2303611,Axim,200,,,,,,,,,,,,,,,,
tuktoyaktuk,-133.03,69.44,600,Snow,light snow,13n,stations,238.15,229.53,238.15,238.15,1024,73,,,6.7,220,75,1578455775,CA,0,0,-25200,6170031,Tuktoyaktuk,200,,,,,,16093,1,942,,,,,,,,
coihaique,-72.07,-45.58,803,Clouds,broken clouds,04n,stations,280.15,277,280.15,280.15,994,81,,,2.6,70,75,1578455776,CL,1578474601,1578530349,-10800,3894426,Coihaique,200,,,,,,10000,1,8491,,,,,,,,
provideniya,-173.23,64.42,800,Clear,clear sky,01n,model,248.83,244.81,248.83,248.83,1024,91,1024,991,0.39,108,0,1578455776,RU,1578518339,1578535182,43200,4031574,Provideniya,200,,,,,,,,,,,,,,,,
port alfred,26.89,-33.59,500,Rain,light rain,10d,stations,294.26,295.28,294.26,294.26,1008,98,,,4.37,44,100,1578455777,ZA,1578453051,1578504385,7200,964432,Port Alfred,200,,,,,,,3,2011314,0.75,,,,,,,
hammerfest,23.68,70.66,804,Clouds,overcast clouds,04n,stations,275.15,257.4,275.15,275.15,973,74,,,22.1,190,100,1578455777,NO,0,0,3600,779683,Hammerfest,200,,,,,,10000,1,1632,,27.3,,,,,,
saskylakh,114.09,71.97,804,Clouds,overcast clouds,04n,model,253.3,247.17,253.3,253.3,1006,96,1006,996,3.62,246,87,1578455777,RU,0,0,32400,2017155,Saskylakh,200,,,,,,,,,,,,,,,,
henties bay,14.28,-22.12,800,Clear,clear sky,01n,stations,290.93,292.71,290.93,290.93,1013,91,,,0.45,323,0,1578455777,NA,1578457604,1578505886,7200,3356832,Henties Bay,200,,,,,,,3,2012545,,0.89,,,,,,
busselton,115.35,-33.64,800,Clear,clear sky,01d,stations,300.04,300.39,299.26,300.93,1007,40,,,0.45,223,0,1578455778,AU,1578431800,1578483162,28800,2075265,Busselton,200,,,,,,,3,2020551,,2.24,,,,,,
lasa,32.53,34.92,200,Thunderstorm,thunderstorm with light rain,11n,stations,282.61,279.48,281.48,283.15,1007,87,,,3.6,80,40,1578455778,CY,1578459488,1578495239,7200,146639,Lasa,200,,,,,,10000,1,6374,,,,,,,,
esperance,121.89,-33.86,800,Clear,clear sky,01d,stations,299.15,297.13,299.15,299.15,1006,54,,,5.7,230,0,1578455778,AU,1578430196,1578481626,28800,2071860,Esperance,200,,,,,,10000,1,9525,,,,,,,,
vaini,74.49,15.34,701,Mist,mist,50d,stations,293.66,296.2,293.15,294.15,1019,94,,,1.32,100,40,1578455779,IN,1578447019,1578487562,19800,1273574,Vaini,200,,,,,,2000,1,9229,,,,,,,,
tateyama,137.31,36.66,520,Rain,light intensity shower rain,09d,stations,286.4,279.9,286.15,286.48,997,87,,,9.8,260,75,1578455779,JP,1578434607,1578469811,32400,1849876,Tateyama,200,,,,,,10000,1,8020,,17,1.02,,,,,
thalheim,12.23,51.65,803,Clouds,broken clouds,04n,stations,277.9,271.82,276.48,279.26,1024,80,,,6.2,190,68,1578455779,DE,1578467735,1578496739,3600,2823078,Thalheim,200,,,,,,10000,1,1273,,,,,,,,
marquette,-87.4,46.54,804,Clouds,overcast clouds,04n,stations,263.69,255.65,263.15,264.26,1011,66,,,6.7,310,90,1578455779,US,1578403974,1578435486,-18000,5000947,Marquette,200,,,,,,16093,1,5777,,9.3,,,,,,
florida,-56.21,-34.1,800,Clear,clear sky,01n,model,292.75,288.47,292.75,292.75,1009,33,1009,998,3.94,25,0,1578455780,UY,1578472929,1578524406,-10800,3442585,Florida,200,,,,,,,,,,,,,,,,
cristalina,-47.61,-16.77,500,Rain,light rain,10n,model,293.81,296.51,293.81,293.81,1013,95,1013,911,1.31,273,100,1578455780,BR,1578473073,1578520133,-10800,3465164,Cristalina,200,,,,,,,,,3,,,,,,,
montalban,124.88,12.17,804,Clouds,overcast clouds,04d,model,301.3,302.61,301.3,301.3,1012,62,1012,982,3.52,78,100,1578455780,PH,1578434593,1578475793,28800,1713262,Montalban,200,,,,,,,,,,,,,,,,
talaya,84.89,55.79,620,Snow,light shower snow,13d,stations,265.3,260.23,265.15,265.37,1028,92,,,3,200,75,1578455780,RU,1578451645,1578477942,25200,1485724,Talaya,200,,,,,,5000,1,8961,,,,,,,,
alice springs,133.88,-23.7,803,Clouds,broken clouds,04d,stations,311.15,307.63,311.15,311.15,1010,17,,,4.6,70,77,1578455692,AU,1578428696,1578477369,34200,2077895,Alice Springs,200,,,,,,10000,1,9483,,,,,,,,
benjamin constant,-70.03,-4.38,802,Clouds,scattered clouds,03n,stations,298.15,303.87,298.15,298.15,1011,100,,,1,,35,1578455781,BR,1578393309,1578437811,-18000,3665016,Benjamin Constant,200,,,,,,10000,1,8600,,,,,,,,
codrington,153.24,-28.95,802,Clouds,scattered clouds,03d,stations,305.53,304.41,302.15,307.15,1012,36,,,4.1,40,40,1578455782,AU,1578423374,1578473396,39600,2160063,Codrington,200,,,,,,10000,1,9537,,,,,,,,
lang son,106.73,21.83,802,Clouds,scattered clouds,03d,model,295.62,296.19,295.62,295.62,1019,70,1019,976,2.42,174,47,1578455782,VN,1578439991,1578479110,25200,1576633,Lang Son,200,,,,,,,,,,,,,,,,
lorengau,147.27,-2.02,501,Rain,moderate rain,10d,model,299.18,300.68,299.18,299.18,1006,90,1006,1007,6.39,207,100,1578455782,PG,1578427803,1578471833,36000,2092164,Lorengau,200,,,,,,,,,10.94,,,,,,,
port macquarie,152.91,-31.43,800,Clear,clear sky,01d,stations,305.23,305.65,301.15,309.26,1012,58,,,6.7,110,0,1578455783,AU,1578423107,1578473821,39600,2152659,Port Macquarie,200,,,,,,10000,1,9610,,,,,,,,
mariental,-49.65,-25.72,803,Clouds,broken clouds,04n,stations,293.39,295.26,292.59,294.15,1015,94,,,2.1,60,75,1578455783,BR,1578472515,1578521671,-10800,3458826,Mariental,200,,,,,,10000,1,8346,,,,,,,,
butaritari,172.79,3.07,500,Rain,light rain,10d,model,302.02,302.9,302.02,302.02,1005,80,1005,1005,7.98,56,100,1578455784,KI,1578422179,1578465204,43200,2110227,Butaritari,200,,,,,,,,,1.13,,,,,,,
castro,-73.76,-42.48,500,Rain,light rain,10n,stations,284.15,280.22,284.15,284.15,1003,76,,,4.6,300,40,1578455784,CL,1578475675,1578530087,-10800,3896218,Castro,200,,,,,,10000,1,8512,,,,,,,,
klaksvik,-6.59,62.23,500,Rain,light rain,10n,stations,274.15,261.1,274.15,274.15,979,80,,,15.4,260,100,1578455784,FO,1578476726,1578496785,0,2618795,Klaksvik,200,,,,,,5000,1,1596,,28.3,,,,,,
carutapera,-46.02,-1.2,500,Rain,light rain,10n,model,300.48,301.92,300.48,300.48,1012,78,1012,1012,5.55,42,52,1578455784,BR,1578474288,1578518155,-10800,3402648,Carutapera,200,,,,,,,,,2.63,,,,,,,
lompoc,-120.46,34.64,800,Clear,clear sky,01n,stations,282.25,277.9,279.26,285.37,1019,81,,,4.91,346,1,1578455785,US,1578409764,1578445569,-28800,5367788,Lompoc,200,,,,,,16093,1,4558,,,,,,,,
dabhol,73.17,17.6,800,Clear,clear sky,01d,model,298.41,299,298.41,298.41,1014,76,1014,1014,4.94,358,0,1578455785,IN,1578447577,1578487637,19800,1273765,Dabhol,200,,,,,,,,,,,,,,,,
swellendam,20.44,-34.02,801,Clouds,few clouds,02d,stations,293.15,295.22,293.15,293.15,1005,88,,,1,320,15,1578455785,ZA,1578454534,1578505998,7200,950709,Swellendam,200,,,,,,,1,1966,,,,,,,,
bredasdorp,20.04,-34.53,800,Clear,clear sky,01d,stations,290.55,291.61,289.26,293.15,1005,88,,,1,320,0,1578455786,ZA,1578454551,1578506173,7200,1015776,Bredasdorp,200,,,,,,,1,1966,,,,,,,,
tuatapere,167.69,-46.13,804,Clouds,overcast clouds,04d,stations,288.71,285.28,288.71,288.71,1015,69,,,4.92,212,89,1578455786,NZ,1578416886,1578472946,46800,2180815,Tuatapere,200,,,,,,,3,2008959,,8.49,,,,,,
haines junction,-137.51,60.75,600,Snow,light snow,13n,model,247.57,242.5,247.57,247.57,1014,99,1014,866,1.88,13,98,1578455786,CA,1578420891,1578442629,-28800,5969025,Haines Junction,200,0.13,,,,,,,,,,,,,,,
tasiilaq,-37.64,65.61,803,Clouds,broken clouds,04n,model,257.28,246.74,257.28,257.28,969,43,969,964,9.7,295,80,1578455787,GL,1578487023,1578501396,-10800,3424607,Tasiilaq,200,,,,,,,,,,,,,,,,
cheremukhovo,46.23,56.23,800,Clear,clear sky,01n,model,260.42,255.03,260.42,260.42,1027,95,1027,1013,3.01,183,4,1578455787,RU,1578461085,1578487065,10800,466423,Cheremukhovo,200,,,,,,,,,,,,,,,,
east london,27.91,-33.02,802,Clouds,scattered clouds,03d,stations,294.15,297.29,294.15,294.15,1008,100,,,1.5,310,40,1578455787,ZA,1578452891,1578504054,7200,1006984,East London,200,,,,,,10000,1,1912,,,,,,,,
kidal,1.41,18.44,803,Clouds,broken clouds,04n,model,288.02,280,288.02,288.02,1016,15,1016,960,6.94,84,76,1578455788,ML,1578464893,1578504776,0,2455290,Kidal,200,,,,,,,,,,,,,,,,
araouane,-3.53,18.9,803,Clouds,broken clouds,04n,model,287.52,281.9,287.52,287.52,1015,17,1015,983,3.63,15,67,1578455788,ML,1578466129,1578505912,0,2460954,Araouane,200,,,,,,,,,,,,,,,,
hirara,125.28,24.8,803,Clouds,broken clouds,04d,stations,292.15,289.04,292.15,292.15,1021,82,,,7.2,10,75,1578455788,JP,1578435885,1578474309,32400,1862505,Hirara,200,,,,,,10000,1,8143,,,,,,,,
bambous virieux,57.76,-20.34,802,Clouds,scattered clouds,03d,stations,298.62,303.21,298.15,299.15,1012,94,,,2.12,166,40,1578455789,MU,1578447372,1578495242,14400,1106677,Bambous Virieux,200,,,,,,10000,1,2061,,,,,,,,
san quintin,120.52,17.54,800,Clear,clear sky,01d,model,301.65,303.58,301.65,301.65,1015,55,1015,1000,1.59,350,0,1578455789,PH,1578436205,1578476275,28800,1688687,San Quintin,200,,,,,,,,,,,,,,,,
vavuniya,80.5,8.76,803,Clouds,broken clouds,04d,model,297.95,300.5,297.95,297.95,1014,83,1014,1005,2.86,38,77,1578455789,LK,1578444901,1578486794,19800,1225018,Vavuniya,200,,,,,,,,,,,,,,,,
chimoio,33.48,-19.11,803,Clouds,broken clouds,04d,stations,296.15,300.13,296.15,296.15,1016,94,,,1.02,181,62,1578455789,MZ,1578453342,1578500929,7200,1049261,Chimoio,200,,,,,,10000,1,2199,,,,,,,,
longyan,117.03,25.1,800,Clear,clear sky,01d,model,291.29,288.94,291.29,291.29,1023,40,1023,947,1.56,25,0,1578455790,CN,1578437901,1578476254,28800,1802276,Longyan,200,,,,,,,,,,,,,,,,
kapaa,-159.32,22.08,802,Clouds,scattered clouds,03d,stations,297.86,294.42,295.93,300.15,1021,69,,,9.3,50,40,1578455790,US,1578417468,1578456523,-36000,5848280,Kapaa,200,,,,,,16093,1,7873,,14.4,,,,,,
inhambane,35.38,-23.87,801,Clouds,few clouds,02d,stations,300.15,302.96,300.15,300.15,1012,83,,,4.18,77,20,1578455790,MZ,1578452327,1578501032,7200,1045114,Inhambane,200,,,,,,10000,1,2200,,,,,,,,
cape town,18.42,-33.93,803,Clouds,broken clouds,04d,stations,291.73,293.73,290.93,292.15,1006,100,,,1.5,,75,1578455791,ZA,1578455033,1578506469,7200,3369157,Cape Town,200,,,,,,8000,1,1899,,,,,,,,
kaitangata,169.85,-46.28,804,Clouds,overcast clouds,04d,stations,287.59,285.87,287.59,287.59,1012,71,,,2.24,90,100,1578455791,NZ,1578416331,1578472463,46800,2208248,Kaitangata,200,,,,,,,3,2000217,,4.92,,,,,,
udachnyy,112.4,66.42,803,Clouds,broken clouds,04d,stations,257.15,252.24,257.15,257.15,1007,84,,,2,270,79,1578455791,RU,1578452079,1578464299,32400,2014624,Udachnyy,200,,,,,,10000,1,8846,,,,,,,,
souillac,-0.6,45.6,804,Clouds,overcast clouds,04n,stations,283.57,281.97,283.15,284.15,1031,93,,,2.1,220,90,1578455792,FR,1578469326,1578501309,3600,3026644,Souillac,200,,,,,,7000,1,6452,,,,,,,,
santiago del estero,-64.26,-27.8,800,Clear,clear sky,01n,model,297.89,296.87,297.89,297.89,1006,55,1006,972,3.8,15,0,1578455792,AR,1578475755,1578525445,-10800,3835869,Santiago del Estero,200,,,,,,,,,,,,,,,,
portales,-103.33,34.19,800,Clear,clear sky,01n,stations,277.77,272.89,277.04,279.15,1024,21,,,2.1,220,1,1578455793,US,1578405587,1578441522,-25200,5484874,Portales,200,,,,,,16093,1,3728,,,,,,,,
oudtshoorn,22.2,-33.59,800,Clear,clear sky,01d,stations,296.15,296.23,296.15,296.15,1006,60,,,2.1,350,0,1578455794,ZA,1578454177,1578505510,7200,967106,Oudtshoorn,200,,,,,,10000,1,1918,,,,,,,,
la libertad,-71.56,-16.38,802,Clouds,scattered clouds,03n,stations,284.15,283.21,284.15,284.15,1028,87,,,1,,40,1578455794,PE,1578392429,1578439425,-18000,3947322,La Libertad,200,,,,,,10000,1,8696,,,,,,,,
vaitape,-151.75,-16.52,800,Clear,clear sky,01d,model,300.8,300.53,300.8,300.8,1010,78,1010,1009,8.24,103,4,1578455795,PF,1578411668,1578458689,-36000,4033077,Vaitape,200,,,,,,,,,,,,,,,,
xiaoweizhai,107.51,26.23,500,Rain,light rain,10d,model,286.65,284.76,286.65,286.65,1018,93,1018,904,3.76,153,100,1578455795,CN,1578440323,1578478403,28800,1789945,Xiaoweizhai,200,,,,,,,,,0.25,,,,,,,
gazanjyk,55.52,39.24,800,Clear,clear sky,01d,model,275.35,270.62,275.35,275.35,1019,62,1019,967,3.14,93,0,1578455795,TM,1578454655,1578489034,18000,161974,Gazanjyk,200,,,,,,,,,,,,,,,,
okha,142.95,53.59,804,Clouds,overcast clouds,04d,model,262.3,254.4,262.3,262.3,1011,90,1011,1007,6.71,288,100,1578455795,RU,1578436959,1578464751,39600,2122614,Okha,200,,,,,,,,,,,,,,,,
hermanus,19.24,-34.42,800,Clear,clear sky,01d,stations,290.58,290.44,289.26,292.04,1006,95,,,3.38,213,0,1578455796,ZA,1578454760,1578506348,7200,3366880,Hermanus,200,,,,,,,3,2003650,,,,,,,,
vardo,-77.74,39.62,741,Fog,fog,50n,stations,270.39,265.98,268.15,272.04,1015,86,,,2.6,180,90,1578455796,US,1578400305,1578434516,-18000,4372777,Vardo,200,,,,,,805,1,4360,,,,,,,,
rosario,-57.35,-34.31,800,Clear,clear sky,01n,stations,290.93,287.55,290.93,290.93,1008,59,,,4.76,5,0,1578455796,UY,1578473170,1578524712,-10800,3440747,Rosario,200,,,,,,,3,2003248,,,,,,,,
mount gambier,140.78,-37.83,804,Clouds,overcast clouds,04d,stations,302.15,297.63,302.15,302.15,1017,37,,,7.7,180,100,1578455797,AU,1578425016,1578477736,37800,2156643,Mount Gambier,200,,,,,,10000,1,9560,,,,,,,,
baran,76.52,25.1,500,Rain,light rain,10d,model,289.14,288.3,289.14,289.14,1014,69,1014,982,1.39,220,71,1578455797,IN,1578447625,1578485981,19800,1277084,Baran,200,,,,,,,,,0.38,,,,,,,
upernavik,-56.15,72.79,804,Clouds,overcast clouds,04n,model,246.22,240.4,246.22,246.22,991,72,991,988,2.83,100,99,1578455797,GL,0,0,-10800,3418910,Upernavik,200,,,,,,,,,,,,,,,,
salalah,54.1,17.01,801,Clouds,few clouds,02d,stations,297.15,294.84,297.15,297.15,1017,50,,,4.6,360,20,1578455797,OM,1578452091,1578492280,14400,286621,Salalah,200,,,,,,10000,1,7562,,,,,,,,
san luis,-66.34,-33.3,800,Clear,clear sky,01n,model,297.98,291.93,297.98,297.98,1003,26,1003,950,6.76,9,0,1578455798,AR,1578475483,1578526716,-10800,3837056,San Luis,200,,,,,,,,,,,,,,,,
yarmouth,-66.12,43.84,804,Clouds,overcast clouds,04n,stations,270.61,265.76,270.15,270.93,1015,79,,,3.1,60,90,1578455798,CA,1578398298,1578430945,-14400,6185217,Yarmouth,200,,,,,,24140,1,893,,,,,,,,
awbari,12.77,26.59,800,Clear,clear sky,01n,model,276.63,273.74,276.63,276.63,1026,68,1026,961,0.93,85,0,1578455799,LY,1578463107,1578501108,7200,2219235,Awbari,200,,,,,,,,,,,,,,,,
coracora,-73.78,-15.02,500,Rain,light rain,10n,model,281.9,279.98,281.9,281.9,1018,90,1018,683,1.81,198,100,1578455799,PE,1578393111,1578439810,-18000,3942259,Coracora,200,,,,,,,,,0.13,,,,,,,
basoko,23.61,1.23,803,Clouds,broken clouds,04n,model,294.45,295.94,294.45,294.45,1009,66,1009,959,0.02,261,72,1578455799,CD,1578457811,1578501199,7200,219414,Basoko,200,,,,,,,,,,,,,,,,
praia,-43.81,-20.25,802,Clouds,scattered clouds,03n,stations,294.15,296.68,294.15,294.15,1016,88,,,0.96,18,40,1578455800,BR,1578471770,1578519611,-10800,3460954,Praia,200,,,,,,10000,1,8329,,,,,,,,
simplicio mendes,-41.91,-7.85,501,Rain,moderate rain,10n,model,295.15,299.09,295.15,295.15,1012,95,1012,977,0.46,16,1,1578455800,BR,1578472639,1578517830,-10800,3387620,Simplicio Mendes,200,,,,,,,,,3.75,,,,,,,
hobart,147.33,-42.88,801,Clouds,few clouds,02d,stations,295.5,289.77,294.15,297.59,1018,49,,,8.7,160,20,1578455763,AU,1578422493,1578477114,39600,2163355,Hobart,200,,,,,,10000,1,9545,,,,,,,,
victoria,115.24,5.28,803,Clouds,broken clouds,04d,stations,303.44,307.77,303.15,304.15,1010,74,,,3.1,20,75,1578455801,BN,1578436214,1578478801,28800,1733782,Victoria,200,,,,,,10000,1,9372,,,,,,,,
napasar,73.56,27.97,802,Clouds,scattered clouds,03d,model,285.49,282.89,285.49,285.49,1016,86,1016,988,3.8,10,46,1578455801,IN,1578448689,1578486338,19800,1261882,Napasar,200,,,,,,,,,,,,,,,,
pevek,170.27,69.7,800,Clear,clear sky,01n,model,249.31,241.17,249.31,249.31,1014,78,1014,1013,6.24,151,0,1578455801,RU,0,0,43200,2122090,Pevek,200,,,,,,,,,,,,,,,,
sibu,111.83,2.29,803,Clouds,broken clouds,04d,stations,303.15,306.4,303.15,303.15,1010,70,,,3.6,40,75,1578455802,MY,1578436737,1578479916,28800,1735902,Sibu,200,,,,,,10000,1,9369,,,,,,,,
anadyr,177.51,64.73,803,Clouds,broken clouds,04n,stations,250.26,243.7,250.15,250.37,1020,76,,,4,320,75,1578455802,RU,1578434555,1578450562,43200,2127202,Anadyr,200,,,,,,10000,1,8872,,5,,,,,,
lebu,38.73,8.96,803,Clouds,broken clouds,04d,model,282.98,282.25,282.98,282.98,1018,93,1018,773,0.64,352,74,1578455802,ET,1578454948,1578496803,10800,344979,Lebu,200,,,,,,,,,,,,,,,,
chuy,-53.46,-33.69,800,Clear,clear sky,01n,model,291.44,289.09,291.44,291.44,1012,62,1012,1011,3.77,34,0,1578455803,UY,1578472331,1578523684,-10800,3443061,Chuy,200,,,,,,,,,,,,,,,,
namibe,12.15,-15.19,804,Clouds,overcast clouds,04n,model,296.16,298.54,296.16,296.16,1011,81,1011,1010,1.59,212,100,1578455803,AO,1578458896,1578505617,3600,3347019,Namibe,200,,,,,,,,,,,,,,,,
severo-yeniseyskiy,93.04,60.37,803,Clouds,broken clouds,04d,model,256.86,252.08,256.86,256.86,1027,96,1027,973,1.89,213,81,1578455803,RU,1578451727,1578473947,25200,1492566,Severo-Yeniseyskiy,200,,,,,,,,,,,,,,,,
itinga,-41.77,-16.61,500,Rain,light rain,10n,model,294.54,297.94,294.54,294.54,1013,93,1013,939,0.56,351,98,1578455803,BR,1578471688,1578518714,-10800,3460563,Itinga,200,,,,,,,,,0.13,,,,,,,
talnakh,88.39,69.49,620,Snow,light shower snow,13n,stations,257.15,247.34,257.15,257.15,1008,84,,,9,200,75,1578455804,RU,0,0,25200,1490256,Talnakh,200,,,,,,2400,1,8951,,,,,,,,
dikson,80.55,73.51,804,Clouds,overcast clouds,04n,model,253.99,247.77,253.99,253.99,1008,97,1008,1008,3.79,6,95,1578455804,RU,0,0,25200,1507390,Dikson,200,,,,,,,,,,,,,,,,
tromso,18.96,69.65,500,Rain,light rain,10n,stations,277.6,267.7,277.15,278.15,971,60,,,10.8,160,100,1578455685,NO,0,0,3600,3133895,Tromso,200,,,,,,10000,1,1619,,,,,,,,
kulhudhuffushi,73.07,6.62,801,Clouds,few clouds,02d,model,300.48,303.5,300.48,300.48,1012,74,1012,1012,2.61,33,23,1578455805,MV,1578446470,1578488792,18000,1337613,Kulhudhuffushi,200,,,,,,,,,,,,,,,,
auki,6.51,12.18,803,Clouds,broken clouds,04n,model,293.12,285.67,293.12,293.12,1013,18,1013,958,6.91,81,65,1578455805,NG,1578463009,1578504212,3600,2339937,Auki,200,,,,,,,,,,,,,,,,
port hedland,118.58,-20.31,803,Clouds,broken clouds,04d,stations,304.15,300.76,304.15,304.15,995,70,,,13.9,200,75,1578455805,AU,1578432772,1578480639,28800,2063042,Port Hedland,200,,,,,,10000,1,9585,,19,,,,,,
saint-philippe,-73.48,45.36,804,Clouds,overcast clouds,04n,stations,269.64,265.61,267.04,272.59,1011,80,,,1.82,142,90,1578455805,CA,1578400377,1578432399,-18000,6138908,Saint-Philippe,200,,,,,,16093,1,4146,,,,,,,,
saint john,-66.06,45.28,804,Clouds,overcast clouds,04n,stations,264.36,260.61,264.15,264.82,1016,92,,,1,,90,1578455740,CA,1578398580,1578430634,-14400,6138517,Saint John,200,,,,,,24140,1,930,,,,,,,,
shunyi,116.65,40.13,800,Clear,clear sky,01d,stations,275.4,269.99,274.26,276.15,1030,29,,,3,350,0,1578455806,CN,1578440137,1578474200,28800,2034754,Shunyi,200,,,,,,10000,1,9609,,,,,,,,
onguday,86.14,50.75,800,Clear,clear sky,01d,model,256.24,251.18,256.24,256.24,1035,76,1035,797,2.09,190,8,1578455806,RU,1578449751,1578479236,25200,1496130,Onguday,200,,,,,,,,,,,,,,,,
yarkovo,82.6,54.81,600,Snow,light snow,13d,stations,263.15,257.15,263.15,263.15,1030,85,,,4,170,90,1578455807,RU,1578451844,1578478843,25200,1486371,Yarkovo,200,,,,,,4500,1,8958,,,,,,,,
opole lubelskie,21.97,51.15,804,Clouds,overcast clouds,04n,stations,274.27,270.31,273.15,275.93,1028,85,,,2.6,220,90,1578455807,PL,1578465257,1578494541,3600,763107,Opole Lubelskie,200,,,,,,7000,1,1702,,,,,,,,
avarua,-159.78,-21.21,804,Clouds,overcast clouds,04d,stations,301.15,303.98,301.15,301.15,1013,78,,,4.1,60,100,1578455807,CK,1578413065,1578461148,-36000,4035715,Avarua,200,,,,,,10000,1,7271,,,,,,,,
saint-joseph,6.97,43.56,800,Clear,clear sky,01n,stations,277.64,274.4,272.04,282.59,1028,93,,,2.6,360,0,1578455808,FR,1578467092,1578499908,3600,3037456,Saint-Joseph,200,,,,,,10000,1,6507,,,,,,,,
kupang,123.6,-10.16,804,Clouds,overcast clouds,04d,stations,301.15,303.98,301.15,301.15,1008,78,,,4.1,330,90,1578455808,ID,1578432666,1578478334,28800,2057087,Kupang,200,,,,,,10000,1,9364,,,,,,,,
mar del plata,-67.52,-46.43,800,Clear,clear sky,01n,model,287.28,274.19,287.28,287.28,989,35,989,978,15.64,281,0,1578455808,AR,1578473309,1578529456,-10800,3863379,Mar del Plata,200,,,,,,,,,,,,,,,,
menongue,17.68,-14.66,500,Rain,light rain,10n,model,290.66,291.22,290.66,290.66,1012,94,1012,853,2.33,319,100,1578455809,AO,1578457625,1578504232,3600,3347353,Menongue,200,,,,,,,,,0.81,,,,,,,
tautira,-149.15,-17.73,801,Clouds,few clouds,02d,stations,303.15,307.1,303.15,303.15,1010,70,,,2.6,310,20,1578455809,PF,1578410910,1578458199,-36000,4033557,Tautira,200,,,,,,10000,1,7318,,,,,,,,
faanui,-151.75,-16.48,800,Clear,clear sky,01d,model,300.98,300.71,300.98,300.98,1010,78,1010,1009,8.39,101,8,1578455810,PF,1578411672,1578458685,-36000,4034551,Faanui,200,,,,,,,,,,,,,,,,
kamaishi,141.86,39.28,600,Snow,light snow,13d,stations,273.15,269.22,273.15,273.15,1004,94,,,2.6,30,75,1578455810,JP,1578433941,1578468292,32400,2112444,Kamaishi,200,,,,,,2000,1,8047,,,,,,,,
sao filipe,-24.5,14.9,804,Clouds,overcast clouds,04n,model,293.02,288.14,293.02,293.02,1016,69,1016,996,8.78,70,100,1578455810,CV,1578470735,1578511375,-3600,3374210,Sao Filipe,200,,,,,,,,,,,,,,,,
saint-georges,-70.67,46.12,804,Clouds,overcast clouds,04n,stations,263.32,259.09,262.59,264.26,1013,88,,,1.53,166,100,1578455811,CA,1578399867,1578431560,-18000,6295855,Saint-Georges,200,,,,,,,3,2003732,,,,,,,,
byron bay,153.62,-28.65,800,Clear,clear sky,01d,stations,304.75,304.58,302.15,307.15,1013,58,,,7.2,30,0,1578455811,AU,1578423323,1578473264,39600,2172880,Byron Bay,200,,,,,,10000,1,9486,,,,,,,,
lamar,-102.62,38.09,800,Clear,clear sky,01n,stations,278.93,269.42,278.71,279.15,1019,33,,,9.3,190,1,1578455811,US,1578406020,1578440748,-25200,5427957,Lamar,200,,,,,,16093,1,4652,,12.9,,,,,,
alferrarede,-8.18,39.48,801,Clouds,few clouds,02n,stations,274.35,271.75,273.15,275.37,1028,90,,,0.83,58,15,1578455812,PT,1578469983,1578504291,0,2272010,Alferrarede,200,,,,,,,3,2001942,,,,,,,,
dukat,19.57,40.25,800,Clear,clear sky,01n,stations,278.15,271.69,278.15,278.15,1024,32,,,4.83,130,0,1578455812,AL,1578463456,1578497494,3600,3184575,Dukat,200,,,,,,,3,2017700,,,,,,,,
worthington,-95.6,43.62,803,Clouds,broken clouds,04n,stations,261.01,254.36,259.15,264.15,1024,72,,,4.6,360,75,1578455680,US,1578405328,1578438069,-21600,5053460,Worthington,200,,,,,,16093,1,5831,,,,,,,,
hokitika,170.96,-42.72,804,Clouds,overcast clouds,04d,model,287.53,284.76,287.53,287.53,1015,73,1015,1016,3.87,329,100,1578455813,NZ,1578416851,1578471411,46800,2206894,Hokitika,200,,,,,,,,,,,,,,,,
nuuk,-51.74,64.17,620,Snow,light shower snow,13n,stations,256.05,245.63,255.93,256.15,986,84,,,9.8,250,100,1578455813,GL,1578489001,1578506188,-10800,3421319,Nuuk,200,,,,,,,1,86,,15.4,,,,,,
tenenkou,-4.91,14.46,803,Clouds,broken clouds,04n,model,290.2,284.45,290.2,290.2,1014,23,1014,982,4.6,33,67,1578455813,ML,1578465986,1578506718,0,2449938,Tenenkou,200,,,,,,,,,,,,,,,,
sitka,-99.65,37.17,800,Clear,clear sky,01n,stations,275.93,272.51,275.93,275.93,1024,49,,,0.89,85,0,1578455814,US,1578405158,1578440183,-21600,4267710,Sitka,200,,,,,,,3,2005167,,1.34,,,,,,
cayenne,-52.33,4.94,803,Clouds,broken clouds,04n,stations,300.15,304.41,300.15,300.15,1013,83,,,2.1,70,75,1578455814,GF,1578476407,1578519065,-10800,3382160,Cayenne,200,,,,,,8000,1,8669,,,,,,,,
pisco,-76.2,-13.71,803,Clouds,broken clouds,04n,stations,294.4,294.14,293.71,295.15,1015,88,,,5.1,210,75,1578455814,PE,1578393832,1578440250,-18000,3932145,Pisco,200,,,,,,10000,1,8691,,,,,,,,
kungurtug,97.53,50.6,800,Clear,clear sky,01d,model,252.7,248.86,252.7,252.7,1038,75,1038,829,0.19,173,0,1578455814,RU,1578446977,1578476541,25200,1501377,Kungurtug,200,,,,,,,,,,,,,,,,
copala,-98.97,16.61,800,Clear,clear sky,01n,model,301.2,304.6,301.2,301.2,1016,71,1016,1014,2.08,125,4,1578455815,MX,1578402376,1578442639,-21600,3530264,Copala,200,,,,,,,,,,,,,,,,
parabel,81.5,58.71,804,Clouds,overcast clouds,04d,model,256.5,252.18,256.5,256.5,1029,97,1029,1017,1.22,270,100,1578455815,RU,1578453665,1578477550,25200,1495586,Parabel,200,,,,,,,,,,,,,,,,
camden,-75.12,39.94,500,Rain,light rain,10n,stations,273.37,270.12,272.04,274.82,1014,88,,,1.5,270,1,1578455815,US,1578399732,1578433832,-18000,4501018,Camden,200,,701,Mist,mist,50n,11265,1,4743,,,0.38,,,,,
port elizabeth,-74.98,39.31,500,Rain,light rain,10n,stations,274.22,269.22,272.59,275.93,1014,86,,,4.1,300,90,1578455816,US,1578399590,1578433906,-18000,4501427,Port Elizabeth,200,,,,,,16093,1,4902,,,0.51,,,,,
tongliao,122.27,43.61,600,Snow,light snow,13d,model,262.94,256.15,262.94,262.94,1027,91,1027,1003,5.19,334,100,1578455816,CN,1578439433,1578472206,28800,2034400,Tongliao,200,0.13,,,,,,,,,,,,,,,
zheleznodorozhnyy,38,55.75,804,Clouds,overcast clouds,04n,stations,273.42,269.95,272.15,274.82,1023,94,,,2,230,90,1578455816,RU,1578462879,1578489222,10800,463355,Zheleznodorozhnyy,200,,,,,,10000,1,9020,,,,,,,,
leningradskiy,178.42,69.38,801,Clouds,few clouds,02n,model,245.57,238.71,245.57,245.57,1017,88,1017,1016,4.35,116,21,1578455816,RU,0,0,43200,2123814,Leningradskiy,200,,,,,,,,,,,,,,,,
mount isa,139.49,-20.73,803,Clouds,broken clouds,04d,stations,310.15,310.31,310.15,310.15,1008,29,,,2.6,320,75,1578455817,AU,1578427703,1578475669,36000,2065594,Mount Isa,200,,,,,,10000,1,9495,,,,,,,,
dubrovka,30.93,59.85,804,Clouds,overcast clouds,04n,stations,276,272.03,275.93,276.15,1013,86,,,3,220,90,1578455817,RU,1578466350,1578489146,10800,548392,Dubrovka,200,,,,,,10000,1,8926,,,,,,,,
gat,-16.54,14.69,802,Clouds,scattered clouds,03n,stations,290.61,283.93,290.15,291.15,1014,36,,,7.2,30,31,1578455817,SN,1578468802,1578509486,0,2249901,Gat,200,,,,,,8000,1,2410,,,,,,,,
teya,-89.07,21.05,801,Clouds,few clouds,02n,stations,293.12,293.62,292.15,294.26,1024,72,,,1.47,27,20,1578455817,MX,1578400489,1578439773,-21600,3526662,Teya,200,,,,,,11265,1,7140,,,,,,,,
bandarbeyla,50.81,9.49,500,Rain,light rain,10d,model,299.01,298,299.01,299.01,1015,76,1015,1015,7.63,47,100,1578455818,SO,1578452101,1578493849,10800,64814,Bandarbeyla,200,,,,,,,,,0.19,,,,,,,
wilmington island,-80.97,32,800,Clear,clear sky,01n,stations,283.6,279.93,280.93,285.15,1024,60,,,3.1,300,1,1578455818,US,1578399908,1578436465,-18000,4231354,Wilmington Island,200,,,,,,11265,1,3324,,,,,,,,
maceio,-35.74,-9.67,800,Clear,clear sky,01n,stations,296.15,299.79,296.15,296.15,1012,94,,,1.5,30,0,1578455521,BR,1578470972,1578516534,-10800,3395981,Maceio,200,,,,,,10000,1,8413,,,,,,,,
jiuquan,98.49,39.73,800,Clear,clear sky,01d,model,265.68,261.14,265.68,265.68,1027,41,1027,784,1.44,105,9,1578455819,CN,1578444426,1578478631,28800,1280957,Jiuquan,200,,,,,,,,,,,,,,,,
senneterre,-77.24,48.39,601,Snow,snow,13n,stations,270.15,265.12,270.15,270.15,1002,92,,,3.6,190,90,1578455819,CA,1578401967,1578432615,-18000,6144195,Senneterre,200,,,,,,603,1,950,,,,,,,,
pacific grove,-121.92,36.62,803,Clouds,broken clouds,04n,stations,282.39,277.32,279.26,285.15,1021,76,,,5.7,260,75,1578455819,US,1578410416,1578445618,-28800,5380437,Pacific Grove,200,,,,,,16093,1,5885,,,,,,,,
beringovskiy,179.32,63.05,804,Clouds,overcast clouds,04n,model,254.36,248.43,254.36,254.36,1020,98,1020,1019,3.4,345,100,1578455820,RU,1578432719,1578451528,43200,2126710,Beringovskiy,200,,,,,,,,,,,,,,,,
grindavik,-22.43,63.84,620,Snow,light shower snow,13n,stations,271.69,251.96,271.15,272.15,965,86,,,24.7,250,75,1578455820,IS,1578481699,1578499417,0,3416888,Grindavik,200,,,,,,2500,1,90,,31.9,,,,,,
kampong cham,105.46,11.99,804,Clouds,overcast clouds,04d,model,301.75,303.4,301.75,301.75,1013,62,1013,1010,3.33,358,99,1578455820,KH,1578439237,1578480474,25200,1831173,Kampong Cham,200,,,,,,,,,,,,,,,,
kavaratti,72.64,10.57,802,Clouds,scattered clouds,03d,stations,302.15,305.73,302.15,302.15,1014,74,,,3.1,360,40,1578455821,IN,1578446970,1578488499,19800,1267390,Kavaratti,200,,,,,,6000,1,9701,,,,,,,,
fare,-151.02,-16.7,800,Clear,clear sky,01d,model,300.99,301.27,300.99,300.99,1010,78,1010,1010,7.61,109,1,1578455821,PF,1578411473,1578458534,-36000,4034496,Fare,200,,,,,,,,,,,,,,,,
kabalo,26.92,-6.05,500,Rain,light rain,10n,model,293.51,296.56,293.51,293.51,1011,97,1011,946,0.84,172,91,1578455821,CD,1578456295,1578501126,7200,215668,Kabalo,200,,,,,,,,,0.63,,,,,,,
yarada,83.27,17.65,721,Haze,haze,50d,stations,297.15,299.22,297.15,297.15,1017,69,,,1,,20,1578455822,IN,1578445158,1578485207,19800,1252783,Yarada,200,,,,,,1500,1,9255,,,,,,,,
watsa,29.53,3.04,803,Clouds,broken clouds,04n,model,292.54,292.28,292.54,292.54,1011,59,1011,908,0.91,130,69,1578455822,CD,1578456568,1578499600,7200,204283,Watsa,200,,,,,,,,,,,,,,,,
hoyerswerda,14.25,51.43,800,Clear,clear sky,01n,stations,274.92,270.93,272.59,277.59,1026,80,,,2.6,180,5,1578455822,DE,1578467188,1578496317,3600,2898304,Hoyerswerda,200,,,,,,10000,1,1261,,,,,,,,
ilulissat,-51.1,69.22,801,Clouds,few clouds,02n,stations,254.15,246.05,254.15,254.15,984,53,,,6.2,110,23,1578455823,GL,0,0,-10800,3423146,Ilulissat,200,,,,,,,1,165,,,,,,,,
kavieng,150.8,-2.57,501,Rain,moderate rain,10d,model,300.98,303.05,300.98,300.98,1005,83,1005,1005,5.92,268,100,1578455823,PG,1578426901,1578471040,36000,2094342,Kavieng,200,,,,,,,,,6.63,,,,,,,
kautokeino,23.04,69.01,600,Snow,light snow,13n,model,271.11,260.84,271.11,271.11,977,91,977,929,11.21,184,99,1578455823,NO,0,0,3600,779330,Kautokeino,200,0.31,,,,,,,,,,,,,,,
puerto escondido,-97.07,15.86,800,Clear,clear sky,01n,model,293.87,291.29,293.87,293.87,1018,43,1018,954,2.91,17,0,1578455824,MX,1578401840,1578442262,-21600,3520994,Puerto Escondido,200,,,,,,,,,,,,,,,,
longyearbyen,15.63,78.22,801,Clouds,few clouds,02n,stations,273.15,260.59,273.15,273.15,976,93,,,14.9,110,20,1578455824,NO,0,0,3600,2729907,Longyearbyen,200,,,,,,10000,1,1663,,,,,,,,
altamont,-98.5,49.4,800,Clear,clear sky,01n,stations,252.52,247.32,252.04,253.15,1026,70,,,2.1,290,1,1578455824,CA,1578407320,1578437470,-21600,6065191,Altamont,200,,,,,,16093,1,3158,,,,,,,,
beloha,45.06,-25.17,800,Clear,clear sky,01d,model,294.89,295.97,294.89,294.89,1012,91,1012,991,3.87,92,0,1578455824,MG,1578449842,1578498869,10800,1067565,Beloha,200,,,,,,,,,,,,,,,,
mindelo,-8.72,41.31,803,Clouds,broken clouds,04n,stations,275.77,270.64,271.48,278.15,1031,86,,,4.6,120,75,1578455825,PT,1578470433,1578504100,0,2739997,Mindelo,200,,,,,,10000,1,6900,,,,,,,,
saint-louis,-16.5,16.03,803,Clouds,broken clouds,04n,stations,289.15,284.84,289.15,289.15,1015,31,,,3.1,40,73,1578455825,SN,1578468933,1578509335,0,2246452,Saint-Louis,200,,,,,,10000,1,2435,,,,,,,,
cleethorpes,-0.03,53.56,804,Clouds,overcast clouds,04n,stations,284.79,279.75,283.71,285.37,1014,81,,,6.7,230,95,1578455825,GB,1578471252,1578499109,0,2652885,Cleethorpes,200,,,,,,10000,1,1422,,,,,,,,
labuhan,115.51,-2.54,803,Clouds,broken clouds,04d,model,305.79,309.79,305.79,305.79,1009,54,1009,996,1.08,335,70,1578455826,ID,1578435376,1578479509,28800,1641899,Labuhan,200,,,,,,,,,,,,,,,,
ondjiva,15.73,-17.07,802,Clouds,scattered clouds,03n,model,292.58,292.89,292.58,292.58,1010,85,1010,887,2.86,271,47,1578455826,AO,1578457832,1578504962,3600,3346821,Ondjiva,200,,,,,,,,,,,,,,,,
ulcinj,19.22,41.93,800,Clear,clear sky,01n,stations,276.93,274.11,271.15,282.15,1027,58,,,0.5,,0,1578455826,ME,1578463842,1578497276,3600,3188516,Ulcinj,200,,,,,,10000,1,7035,,,,,,,,
port lincoln,135.86,-34.72,800,Clear,clear sky,01d,model,299.61,297.02,299.61,299.61,1014,39,1014,1008,4.32,96,0,1578455826,AU,1578426708,1578478406,37800,2063036,Port Lincoln,200,,,,,,,,,,,,,,,,
georgetown,-58.16,6.8,802,Clouds,scattered clouds,03n,stations,297.15,300.91,297.15,297.15,1014,94,,,2.1,40,40,1578455827,GY,1578391570,1578433851,-14400,3378644,Georgetown,200,,,,,,10000,1,8767,,,,,,,,
san carlos,-84.78,11.12,500,Rain,light rain,10n,stations,295.93,289.68,295.93,295.93,1015,10,,,4.52,69,0,1578455827,NI,1578398396,1578439805,-21600,3616911,San Carlos,200,,,,,,,3,2017699,0.13,,,,,,,
airai,125.41,-8.93,803,Clouds,broken clouds,04d,model,301.93,303.01,301.93,301.93,1007,49,1007,902,1.85,217,67,1578455827,TL,1578432358,1578477774,32400,1651810,Airai,200,,,,,,,,,,,,,,,,
itarema,-39.92,-2.92,804,Clouds,overcast clouds,04n,model,297.94,301.97,297.94,297.94,1012,86,1012,1008,1.18,29,100,1578455828,BR,1578472653,1578516860,-10800,3393692,Itarema,200,,,,,,,,,,,,,,,,
baykit,96.39,61.68,803,Clouds,broken clouds,04d,model,253.72,249.69,253.72,253.72,1025,99,1025,980,0.66,214,72,1578455828,RU,1578451681,1578472385,25200,1510689,Baykit,200,,,,,,,,,,,,,,,,
aklavik,-135.01,68.22,800,Clear,clear sky,01n,stations,234.15,228.73,234.15,234.15,1026,72,,,2.1,280,5,1578455828,CA,1578429106,1578433213,-25200,5882953,Aklavik,200,,,,,,24140,1,796,,,,,,,,
evensk,159.24,61.92,804,Clouds,overcast clouds,04d,model,252.86,247.36,252.86,252.86,1012,72,1012,990,2.56,3,100,1578455829,RU,1578436761,1578457128,39600,2125693,Evensk,200,,,,,,,,,,,,,,,,
kinshasa,15.31,-4.32,801,Clouds,few clouds,02n,stations,298.66,303.29,298.15,299.15,1012,94,,,2.1,270,20,1578455436,CD,1578459255,1578503740,3600,2314302,Kinshasa,200,,,,,,6000,1,2024,,,,,,,,
chicama,-79.15,-7.84,701,Mist,mist,50n,stations,294.15,294.77,294.15,294.15,1014,83,,,3.1,150,20,1578455829,PE,1578395150,1578440349,-18000,3698359,Chicama,200,,,,,,8000,1,8690,,,,,,,,
halifax,-63.58,44.65,803,Clouds,broken clouds,04n,stations,269.48,265.84,268.15,270.37,1016,92,,,1.5,290,75,1578455703,CA,1578397853,1578430170,-14400,6324729,Halifax,200,,,,,,24140,1,822,,,,,,,,
san borja,-66.75,-14.86,500,Rain,light rain,10n,model,297.63,302.01,297.63,297.63,1009,90,1009,986,1.02,12,94,1578455830,BO,1578391440,1578438105,-14400,3905792,San Borja,200,,,,,,,,,0.38,,,,,,,
tarnogskiy gorodok,43.58,60.5,600,Snow,light snow,13n,model,267.85,262.41,267.85,267.85,1016,93,1016,999,3.86,195,98,1578455830,RU,1578463660,1578485762,10800,484314,Tarnogskiy Gorodok,200,0.56,,,,,,,,,,,,,,,
guerrero negro,-114.04,27.97,804,Clouds,overcast clouds,04n,model,290.82,287.02,290.82,290.82,1018,37,1018,1015,3.23,323,100,1578455830,MX,1578407310,1578444941,-25200,4021858,Guerrero Negro,200,,,,,,,,,,,,,,,,
the valley,-63.06,18.22,803,Clouds,broken clouds,04n,stations,298.15,299.93,298.15,298.15,1019,83,,,4.1,70,75,1578455690,AI,1578393931,1578433842,-14400,3573374,The Valley,200,,,,,,10000,1,8801,,,,,,,,
kaina,8.59,12.64,800,Clear,clear sky,01n,stations,288.15,285.96,288.15,288.15,1018,51,,,1.5,60,0,1578455831,NG,1578462557,1578503665,3600,2334674,Kaina,200,,,,,,10000,1,1181,,,,,,,,
vrangel,133.08,42.73,600,Snow,light snow,13d,model,272.89,267.26,272.89,272.89,1011,87,1011,1009,4.78,320,100,1578455832,RU,1578436669,1578469781,36000,2013258,Vrangel,200,0.19,,,,,,,,,,,,,,,
fairbanks,-147.72,64.84,701,Mist,mist,50n,stations,240.41,236.36,238.15,242.04,1021,97,,,0.25,296,75,1578455601,US,1578426326,1578442096,-32400,5861897,Fairbanks,200,,,,,,8047,1,7683,,,,,,,,
port blair,92.75,11.67,803,Clouds,broken clouds,04d,model,299.93,300.39,299.93,299.93,1013,77,1013,1013,6.37,59,63,1578455832,IN,1578442255,1578483558,19800,1259385,Port Blair,200,,,,,,,,,,,,,,,,
marystown,-55.16,47.17,803,Clouds,broken clouds,04n,model,271.82,265.47,271.82,271.82,1017,81,1017,1017,5.47,239,70,1578455833,CA,1578482764,1578514067,-12600,6067472,Marystown,200,,,,,,,,,,,,,,,,
great yarmouth,1.73,52.61,804,Clouds,overcast clouds,04n,stations,285.56,280.3,284.26,286.15,1016,87,,,7.7,240,100,1578455664,GB,1578470535,1578498980,0,2647984,Great Yarmouth,200,,,,,,10000,1,1467,,,,,,,,
yerbogachen,108.01,61.28,600,Snow,light snow,13d,model,259.56,253.54,259.56,259.56,1019,94,1019,978,3.83,262,99,1578455833,RU,1578448652,1578469834,28800,2012956,Yerbogachen,200,0.19,,,,,,,,,,,,,,,
micheweni,39.83,-4.97,500,Rain,light rain,10d,model,302.05,305.21,302.05,302.05,1011,76,1011,1011,3.99,53,33,1578455834,TZ,1578453304,1578497919,10800,153955,Micheweni,200,,,,,,,,,0.44,,,,,,,
hualmay,-77.61,-11.1,802,Clouds,scattered clouds,03n,model,292.39,293.96,292.39,292.39,1017,88,1017,964,1.27,194,25,1578455834,PE,1578394445,1578440314,-18000,3939761,Hualmay,200,,,,,,,,,,,,,,,,
narsaq,-46.05,60.91,600,Snow,light snow,13n,stations,263.15,257.57,263.15,263.15,991,72,,,3.23,38,100,1578455834,GL,1578485382,1578507074,-10800,3421719,Narsaq,200,0.31,,,,,,1,47,,,,,,,,
leh,77.58,34.16,804,Clouds,overcast clouds,04d,model,256.75,252.06,256.75,256.75,1024,81,1024,591,1.64,235,94,1578455834,IN,1578448564,1578484533,19800,1264976,Leh,200,,,,,,,,,,,,,,,,
tecoanapa,-99.26,16.99,801,Clouds,few clouds,02n,stations,299.15,304.18,299.15,299.15,1014,88,,,1,80,20,1578455835,MX,1578402487,1578442667,-21600,3532499,Tecoanapa,200,,,,,,9656,1,7103,,,,,,,,
bay-khaak,94.47,51.16,804,Clouds,overcast clouds,04d,model,254.4,249.85,254.4,254.4,1042,67,1042,835,1.23,198,89,1578455835,RU,1578447865,1578477122,25200,1510690,Bay-Khaak,200,,,,,,,,,,,,,,,,
nome,-94.42,30.04,800,Clear,clear sky,01n,stations,278.97,276.13,276.15,282.15,1029,66,,,1.22,118,1,1578455835,US,1578402870,1578439961,-21600,4732862,Nome,200,,,,,,16093,1,3476,,,,,,,,
otane,176.62,-39.89,804,Clouds,overcast clouds,04d,stations,290.37,288.31,290.37,290.37,1016,59,,,2.68,90,100,1578455836,NZ,1578416042,1578469502,46800,2185329,Otane,200,,,,,,,3,2010964,,4.02,,,,,,
poum,20.71,41.28,800,Clear,clear sky,01n,model,269.69,264.82,269.69,269.69,1028,35,1028,901,2.03,82,0,1578455836,MK,1578463365,1578497038,3600,787487,Poum,200,,,,,,,,,,,,,,,,
christchurch,172.64,-43.53,804,Clouds,overcast clouds,04d,stations,289.21,284.71,287.59,290.37,1015,51,,,5.1,60,100,1578455544,NZ,1578416278,1578471176,46800,2192362,Christchurch,200,,,,,,10000,1,7348,,10.3,,,,,,
naze,7.07,5.43,804,Clouds,overcast clouds,04n,model,295.92,299,295.92,295.92,1010,84,1010,1000,0.82,228,100,1578455837,NG,1578462196,1578504756,3600,2337542,Naze,200,,,,,,,,,,,,,,,,
sungairaya,108.9,0.7,804,Clouds,overcast clouds,04d,model,304.88,309.08,304.88,304.88,1009,58,1009,1007,1.04,17,97,1578455837,ID,1578437283,1578480776,25200,1625908,Sungairaya,200,,,,,,,,,,,,,,,,
torbay,-52.73,47.66,803,Clouds,broken clouds,04n,stations,267.41,261.5,265.93,268.15,1016,73,,,4.1,230,75,1578455838,CA,1578482293,1578513371,-12600,6167817,Torbay,200,,,,,,24140,1,998,,,,,,,,
ishigaki,124.16,24.34,520,Rain,light intensity shower rain,09d,stations,292.15,288.01,292.15,292.15,1021,88,,,9.3,30,75,1578455838,JP,1578436099,1578474633,32400,1861416,Ishigaki,200,,,,,,10000,1,8139,,,,,,,,
fortuna,-124.16,40.6,500,Rain,light rain,10n,stations,281.45,278.99,279.26,282.15,1019,93,,,2.6,150,90,1578455838,US,1578411617,1578445493,-28800,5563839,Fortuna,200,,,,,,16093,1,4127,,,0.25,,,,,
cidreira,-50.22,-30.17,800,Clear,clear sky,01n,model,296.72,296.84,296.72,296.72,1011,71,1011,1011,3.82,89,0,1578455839,BR,1578472063,1578522396,-10800,3466165,Cidreira,200,,,,,,,,,,,,,,,,
norman wells,-126.83,65.28,741,Fog,fog,50n,stations,230.15,225.13,230.15,230.15,1026,64,,,1.5,230,5,1578455839,CA,1578421767,1578436625,-25200,6089245,Norman Wells,200,,,,,,805,1,951,,,,,,,,
cairns,145.77,-16.92,520,Rain,light intensity shower rain,09d,stations,300.88,306.18,298.15,303.15,1009,88,,,2.1,60,90,1578455586,AU,1578426625,1578473731,36000,2172797,Cairns,200,,,,,,10000,1,9490,,,2.29,,,,,
barrow,-60.23,-38.31,800,Clear,clear sky,01n,model,292.82,289,292.82,292.82,1003,37,1003,994,3.73,346,0,1578455839,AR,1578473207,1578526059,-10800,3833859,Barrow,200,,,,,,,,,,,,,,,,
pochutla,-96.47,15.74,800,Clear,clear sky,01n,model,300.05,302.28,300.05,300.05,1016,72,1016,1014,3.1,339,0,1578455840,MX,1578401684,1578442131,-21600,3517970,Pochutla,200,,,,,,,,,,,,,,,,
tabou,-7.36,4.42,800,Clear,clear sky,01n,model,295.67,299.22,295.67,295.67,1011,93,1011,1008,1.14,310,0,1578455840,CI,1578465560,1578508320,0,2281120,Tabou,200,,,,,,,,,,,,,,,,
cabo san lucas,-109.91,22.89,800,Clear,clear sky,01n,stations,290.72,290.34,287.59,293.15,1017,77,,,2.1,210,5,1578455840,MX,1578405702,1578444566,-25200,3985710,Cabo San Lucas,200,,,,,,11265,1,7151,,,,,,,,
yangambi,24.47,0.77,803,Clouds,broken clouds,04n,model,294.55,295.69,294.55,294.55,1009,68,1009,955,0.81,87,84,1578455840,CD,1578457559,1578501038,7200,203717,Yangambi,200,,,,,,,,,,,,,,,,
manokwari,134.08,-0.87,500,Rain,light rain,10d,model,296.78,300.25,296.78,296.78,1008,94,1008,962,2.23,334,100,1578455546,ID,1578431083,1578474886,32400,1636308,Manokwari,200,,,,,,,,,2.94,,,,,,,
garmsar,52.34,35.22,800,Clear,clear sky,01d,model,277.62,273.2,277.62,277.62,1021,57,1021,932,2.86,85,0,1578455841,IR,1578454779,1578490437,12600,32723,Garmsar,200,,,,,,,,,,,,,,,,
gold coast,153.41,-28,800,Clear,clear sky,01d,stations,305.07,305.06,302.15,307.59,1013,58,,,7.2,30,0,1578455841,AU,1578423460,1578473228,36000,2165087,Gold Coast,200,,,,,,10000,1,9486,,,,,,,,
cuamba,36.54,-14.8,804,Clouds,overcast clouds,04d,model,292.66,295.36,292.66,292.66,1012,97,1012,940,0.78,5,100,1578455842,MZ,1578453082,1578499720,7200,1047660,Cuamba,200,,,,,,,,,,,,,,,,
katobu,122.53,-4.94,501,Rain,moderate rain,10d,model,301.56,305.62,301.56,301.56,1008,78,1008,1000,2.67,259,98,1578455842,ID,1578433452,1578478063,28800,1640972,Katobu,200,,,,,,,,,3.63,,,,,,,
ponta do sol,-46,-20.63,501,Rain,moderate rain,10n,model,294.29,297.28,294.29,294.29,1013,93,1013,916,0.98,270,100,1578455842,BR,1578472252,1578520181,-10800,3453439,Ponta do Sol,200,,,,,,,,,4.25,,,,,,,
serebryanyy bor,124.8,56.8,600,Snow,light snow,13d,model,260.13,256.04,260.13,260.13,1023,96,1023,921,1.14,183,97,1578455842,RU,1578442459,1578467966,32400,2016977,Serebryanyy Bor,200,0.13,,,,,,,,,,,,,,,
kruisfontein,24.73,-34,803,Clouds,broken clouds,04d,model,291.53,291.54,291.53,291.53,1008,91,1008,977,3.32,28,84,1578455843,ZA,1578453507,1578504966,7200,986717,Kruisfontein,200,,,,,,,,,,,,,,,,
velizh,31.2,55.61,804,Clouds,overcast clouds,04n,model,272.46,267.17,272.46,272.46,1024,90,1024,1004,4.3,234,100,1578455843,RU,1578464459,1578490907,10800,475955,Velizh,200,,,,,,,,,,,,,,,,
saint anthony,-111.68,43.97,800,Clear,clear sky,01n,stations,269.06,265.29,265.93,274.15,1016,86,,,1.5,50,1,1578455843,US,1578409257,1578441861,-25200,5606187,Saint Anthony,200,,,,,,16093,1,5735,,,,,,,,
lagoa,-8.45,37.14,800,Clear,clear sky,01n,stations,283.15,279.91,281.15,285.93,1028,81,,,3.6,20,0,1578455844,PT,1578469664,1578504740,0,2267254,Lagoa,200,,,,,,10000,1,6892,,,,,,,,
roald,6.12,62.58,501,Rain,moderate rain,10n,stations,278.48,268.08,274.82,281.48,984,75,,,12.3,250,100,1578455844,NO,1578473913,1578493495,3600,3141667,Roald,200,,,,,,10000,1,1602,3.88,18,,,,,,
dingli,75.51,28.39,500,Rain,light rain,10d,model,286.02,283.47,286.02,286.02,1016,88,1016,984,4.08,67,60,1578455844,IN,1578448274,1578485817,19800,1259693,Dingli,200,,,,,,,,,0.56,,,,,,,
strezhevoy,77.6,60.73,803,Clouds,broken clouds,04d,stations,253.15,248.09,253.15,253.15,1025,83,,,2,210,60,1578455845,RU,1578455628,1578477460,25200,1490796,Strezhevoy,200,,,,,,10000,1,8986,,,,,,,,
weligama,80.42,5.97,803,Clouds,broken clouds,04d,model,299.89,303.35,299.89,299.89,1013,74,1013,1009,1.56,66,58,1578455845,LK,1578444641,1578487092,19800,1223738,Weligama,200,,,,,,,,,,,,,,,,
aketi,23.78,2.74,803,Clouds,broken clouds,04n,model,294.32,293.74,294.32,294.32,1009,50,1009,953,1.02,38,63,1578455845,CD,1578457919,1578501010,7200,220448,Aketi,200,,,,,,,,,,,,,,,,
kajaani,27.73,64.22,804,Clouds,overcast clouds,04n,stations,275.15,268.62,275.15,275.15,993,93,,,6.7,190,90,1578455845,FI,1578469994,1578487038,7200,654901,Kajaani,200,,,,,,10000,1,1344,,,,,,,,
cape coast,-1.24,5.11,804,Clouds,overcast clouds,04n,model,299.68,301.23,299.68,299.68,1011,79,1011,1011,4.95,251,85,1578455846,GH,1578464159,1578506782,0,2302357,Cape Coast,200,,,,,,,,,,,,,,,,
poronaysk,143.1,49.22,800,Clear,clear sky,01d,model,266.58,262.34,266.58,266.58,1012,69,1012,1005,1.56,130,0,1578455846,RU,1578435683,1578465955,39600,2121909,Poronaysk,200,,,,,,,,,,,,,,,,
dobryatino,41.32,55.51,600,Snow,light snow,13n,model,269.02,263.9,269.02,269.02,1024,94,1024,1006,3.6,215,100,1578455846,RU,1578461995,1578488512,10800,565774,Dobryatino,200,0.31,,,,,,,,,,,,,,,
tazovskiy,78.7,67.47,600,Snow,light snow,13n,model,259.52,252.66,259.52,259.52,1013,94,1013,1011,5.03,261,93,1578455847,RU,1578461901,1578470658,18000,1489853,Tazovskiy,200,0.19,,,,,,,,,,,,,,,
saint-augustin,-73.98,45.63,804,Clouds,overcast clouds,04n,stations,269.31,264.95,267.04,270.93,1011,73,,,2.1,50,90,1578455847,CA,1578400555,1578432462,-18000,6138501,Saint-Augustin,200,,,,,,40233,1,861,,,,,,,,
vanavara,102.28,60.35,803,Clouds,broken clouds,04d,model,255.72,250.96,255.72,255.72,1024,97,1024,981,1.8,260,72,1578455848,RU,1578449500,1578471737,25200,2013727,Vanavara,200,,,,,,,,,,,,,,,,
tafresh,50.01,34.69,800,Clear,clear sky,01d,model,271.36,267.11,271.36,271.36,1022,54,1022,794,1.72,95,0,1578455848,IR,1578455259,1578491076,12600,113636,Tafresh,200,,,,,,,,,,,,,,,,
roros,11.38,62.57,802,Clouds,scattered clouds,03n,stations,277.15,270.77,277.15,277.15,981,86,,,6.7,200,39,1578455848,NO,1578472645,1578492237,3600,3141332,Roros,200,,,,,,,1,1655,,11.8,,,,,,
rio de jesus,-81.16,7.98,800,Clear,clear sky,01n,model,296.1,298.48,296.1,296.1,1013,81,1013,1004,1.55,14,0,1578455848,PA,1578397209,1578439254,-18000,3701882,Rio de Jesus,200,,,,,,,,,,,,,,,,
pedernales,-80.05,0.07,802,Clouds,scattered clouds,03n,model,296.33,299.56,296.33,296.33,1014,92,1014,993,1.96,239,28,1578455849,EC,1578396157,1578439774,-18000,3653307,Pedernales,200,,,,,,,,,,,,,,,,
ocampo,-102.4,27.32,803,Clouds,broken clouds,04n,model,279.99,275.07,279.99,279.99,1025,32,1025,857,2.81,128,71,1578455849,MX,1578404434,1578442228,-21600,3994534,Ocampo,200,,,,,,,,,,,,,,,,
kamenka,28.7,48.03,800,Clear,clear sky,01n,stations,264.26,260.18,264.26,264.26,1030,89,,,1.42,335,0,1578455850,MD,1578462842,1578493725,7200,618453,Kamenka,200,,,,,,,3,2012853,,,,,,,,
el calvario,-73.71,4.35,701,Mist,mist,50n,stations,283.15,282.5,283.15,283.15,1029,100,,,1,,20,1578455850,CO,1578395059,1578437828,-18000,3684770,El Calvario,200,,,,,,2000,1,8582,,,,,,,,
broome,1.45,52.47,804,Clouds,overcast clouds,04n,stations,285.51,280.24,284.26,286.15,1016,87,,,7.7,240,100,1578455850,GB,1578470561,1578499090,0,2656067,Broome,200,,,,,,10000,1,1467,,,,,,,,
husavik,-96.99,50.56,801,Clouds,few clouds,02n,stations,251.23,245.04,250.93,251.48,1029,82,,,3.53,312,24,1578455851,CA,1578407262,1578436802,-21600,5961417,Husavik,200,,,,,,,3,19218,,,,,,,,
malanje,16.35,-9.54,500,Rain,light rain,10n,model,291.14,293.52,291.14,291.14,1013,99,1013,888,0.49,306,100,1578455851,AO,1578458480,1578504016,3600,2239862,Malanje,200,,,,,,,,,0.56,,,,,,,
alofi,-169.92,-19.06,802,Clouds,scattered clouds,03d,model,301.16,303,301.16,301.16,1011,75,1011,1010,4.99,75,44,1578455851,NU,1578415747,1578463334,-39600,4036284,Alofi,200,,,,,,,,,,,,,,,,
estelle,3.47,43.97,800,Clear,clear sky,01n,stations,277.87,274.32,276.48,279.15,1029,93,,,3.1,320,3,1578455852,FR,1578468013,1578500667,3600,2969157,Estelle,200,,,,,,10000,1,6518,,,,,,,,
puerto ayacucho,-67.63,5.66,800,Clear,clear sky,01n,stations,299.15,301.96,299.15,299.15,1012,78,,,2.6,20,0,1578455852,CO,1578393729,1578436238,-14400,3629710,Puerto Ayacucho,200,,,,,,10000,1,8586,,,,,,,,
atambua,124.89,-9.11,803,Clouds,broken clouds,04d,model,301.53,304.27,301.53,301.53,1007,67,1007,973,2.54,302,60,1578455852,ID,1578432464,1578477917,28800,1651103,Atambua,200,,,,,,,,,,,,,,,,
butajira,38.38,8.12,802,Clouds,scattered clouds,03d,model,288.39,285.13,288.39,288.39,1018,77,1018,817,5.22,7,41,1578455853,ET,1578454948,1578496971,10800,341297,Butajira,200,,,,,,,,,,,,,,,,
margate,147.26,-43.03,801,Clouds,few clouds,02d,stations,295.5,289.77,294.15,297.59,1018,49,,,8.7,160,20,1578455853,AU,1578422479,1578477162,39600,2158744,Margate,200,,,,,,10000,1,9545,,,,,,,,
newport,-3,51.59,802,Clouds,scattered clouds,03n,stations,283.81,277.4,283.15,285.15,1019,87,,,8.7,250,40,1578455817,GB,1578471372,1578500415,0,2641598,Newport,200,,,,,,10000,1,1398,,,,,,,,
colares,-9.45,38.8,800,Clear,clear sky,01n,stations,279.79,275.88,275.15,281.48,1030,81,,,3.6,320,0,1578455854,PT,1578470173,1578504711,0,2269142,Colares,200,,,,,,10000,1,6901,,,,,,,,
hami,93.51,42.84,800,Clear,clear sky,01d,model,265.55,261.13,265.55,265.55,1030,52,1030,914,1.44,75,0,1578455854,CN,1578446185,1578479263,28800,1529484,Hami,200,,,,,,,,,,,,,,,,
bethel,-161.76,60.79,801,Clouds,few clouds,02n,stations,244.91,236.72,244.15,245.15,1018,75,,,6.2,20,20,1578455762,US,1578426730,1578448434,-32400,5880568,Bethel,200,,,,,,16093,1,7640,,,,,,,,
tema,-0.01,5.66,721,Haze,haze,50n,stations,299.15,301.51,299.15,299.15,1010,74,,,2.6,270,0,1578455855,GH,1578463918,1578506433,0,2294700,Tema,200,,,,,,3000,1,1126,,,,,,,,
marawi,124.29,8,804,Clouds,overcast clouds,04d,stations,300.37,303.21,300.37,300.37,1010,76,,,3.13,344,99,1578455855,PH,1578434312,1578476357,28800,1701054,Marawi,200,,,,,,,3,2007154,,5.81,,,,,,
kudahuvadhoo,72.89,2.67,804,Clouds,overcast clouds,04d,model,301.19,302.91,301.19,301.19,1012,76,1012,1011,5.36,67,100,1578455855,MV,1578446122,1578489227,18000,1337607,Kudahuvadhoo,200,,,,,,,,,,,,,,,,
port keats,129.55,-14.25,500,Rain,light rain,10d,model,304.64,306.1,304.64,304.64,1006,63,1006,1005,5.87,295,100,1578455855,AU,1578430809,1578477335,34200,2063039,Port Keats,200,,,,,,,,,0.5,,,,,,,
yertsevo,40.09,60.8,500,Rain,light rain,10n,model,274.49,270.08,274.49,274.49,1012,97,1012,991,3.66,207,100,1578455856,RU,1578464663,1578486435,10800,467084,Yertsevo,200,,,,,,,,,0.44,,,,,,,
gemena,19.78,3.25,804,Clouds,overcast clouds,04n,model,294.23,293.39,294.23,294.23,1009,44,1009,964,0.66,12,90,1578455856,CD,1578458929,1578501920,3600,2315728,Gemena,200,,,,,,,,,,,,,,,,
braco do norte,-49.17,-28.27,500,Rain,light rain,10n,model,294.54,298.18,294.54,294.54,1011,98,1011,1002,0.82,236,98,1578455856,BR,1578472069,1578521886,-10800,3469115,Braco do Norte,200,,,,,,,,,0.13,,,,,,,
herat,62.22,34.35,741,Fog,fog,50d,stations,270.15,266.72,270.15,270.15,1025,100,,,1.5,,40,1578455857,AF,1578452278,1578488194,16200,1140026,Herat,200,,,,,,400,1,7366,,,,,,,,
coquimbo,-71.34,-29.95,800,Clear,clear sky,01n,stations,290.15,289.56,290.15,290.15,1015,82,,,2.6,310,0,1578455857,CL,1578477165,1578527434,-10800,3893629,Coquimbo,200,,,,,,10000,1,8514,,,,,,,,
isangel,169.27,-19.55,803,Clouds,broken clouds,04d,stations,303.15,303.96,303.15,303.15,1010,55,,,4.1,140,75,1578455857,VU,1578420688,1578468385,39600,2136825,Isangel,200,,,,,,10000,1,7317,,,,,,,,
suba,103.51,28.73,804,Clouds,overcast clouds,04d,model,275.7,272.61,275.7,275.7,1018,92,1018,839,1.88,81,98,1578455857,CN,1578441598,1578479049,28800,1800475,Suba,200,,,,,,,,,,,,,,,,
kailua,-157.74,21.39,804,Clouds,overcast clouds,04d,stations,297.32,294.42,296.15,298.15,1019,69,,,8.2,60,90,1578455858,US,1578417010,1578456223,-36000,5847486,Kailua,200,,,,,,16093,1,7877,,10.8,,,,,,
kalevala,29.58,64.12,600,Snow,light snow,13n,model,274.78,268.21,274.78,274.78,998,89,998,973,6.55,203,100,1578455858,FI,1578469465,1578486679,7200,650705,Kalevala,200,0.13,,,,,,,,,,,,,,,
yining,114.56,29.04,800,Clear,clear sky,01d,model,282.24,279.79,282.24,282.24,1028,60,1028,997,1.05,52,7,1578455858,CN,1578438986,1578476356,28800,1786538,Yining,200,,,,,,,,,,,,,,,,
sao gabriel da cachoeira,-67.09,-0.13,802,Clouds,scattered clouds,03n,model,297.97,301.39,297.97,297.97,1010,80,1010,998,1.18,307,38,1578455859,BR,1578393026,1578436682,-14400,3662342,Sao Gabriel da Cachoeira,200,,,,,,,,,,,,,,,,
stykkisholmur,-22.73,65.08,600,Snow,light snow,13n,model,270.33,259.26,270.33,270.33,959,86,959,940,12.11,243,100,1578455859,IS,1578482889,1578498371,0,3412888,Stykkisholmur,200,1.31,,,,,,,,,,,,,,,
dingle,122.67,11,500,Rain,light rain,10d,model,300.95,302.52,300.95,300.95,1012,75,1012,996,5.21,43,100,1578455859,PH,1578435004,1578476443,28800,1714733,Dingle,200,,,,,,,,,0.31,,,,,,,
geraldton,-86.95,49.72,803,Clouds,broken clouds,04n,stations,254.15,247.94,254.15,254.15,1012,70,,,3.6,310,75,1578455859,CA,1578404631,1578434613,-18000,5960603,Geraldton,200,,,,,,24140,1,810,,,,,,,,
dzemul,-89.31,21.21,801,Clouds,few clouds,02n,stations,293.13,292.87,292.15,294.26,1024,72,,,2.56,26,20,1578455860,MX,1578400564,1578439813,-21600,3529669,Dzemul,200,,,,,,11265,1,7140,,,,,,,,
cartagena del chaira,-74.84,1.33,800,Clear,clear sky,01n,model,296.71,298.84,296.71,296.71,1013,73,1013,982,1.22,25,6,1578455860,CO,1578395031,1578438399,-18000,3792382,Cartagena del Chaira,200,,,,,,,,,,,,,,,,
brainerd,-94.2,46.36,800,Clear,clear sky,01n,stations,254.91,249.78,253.15,257.15,1024,70,,,2.1,320,1,1578455860,US,1578405566,1578437159,-21600,5019116,Brainerd,200,,,,,,16093,1,5447,,,,,,,,
key west,-96.78,47.93,800,Clear,clear sky,01n,stations,251.15,245.15,249.15,253.71,1026,76,,,3.23,306,1,1578455861,US,1578406545,1578437418,-21600,5059429,Key West,200,,,,,,16093,1,3637,,,,,,,,
kloulklubed,134.26,7.04,803,Clouds,broken clouds,04d,stations,303.15,303.88,303.15,303.15,1009,70,,,7.2,70,75,1578455861,PW,1578431823,1578474060,32400,7671223,Kloulklubed,200,,,,,,24140,1,7901,,13.4,,,,,,
taoudenni,-3.98,22.68,800,Clear,clear sky,01n,model,284.88,278.75,284.88,284.88,1018,25,1018,996,4.67,50,0,1578455861,ML,1578466662,1578505596,0,2450173,Taoudenni,200,,,,,,,,,,,,,,,,
la sarre,-79.2,48.8,600,Snow,light snow,13n,model,269.37,265.43,269.37,269.37,1002,96,1002,963,2.01,257,100,1578455862,CA,1578402538,1578432985,-18000,6050194,La Sarre,200,1.5,,,,,,,,,,,,,,,
zaysan,84.87,47.47,804,Clouds,overcast clouds,04d,model,256.75,252.59,256.75,256.75,1033,71,1033,954,0.79,26,96,1578455862,KZ,1578449232,1578480364,21600,1517060,Zaysan,200,,,,,,,,,,,,,,,,
nador,-2.93,35.17,800,Clear,clear sky,01n,stations,278.44,276.47,277.15,280.15,1028,93,,,1,,0,1578455862,MA,1578468036,1578503717,3600,2541479,Nador,200,,,,,,9000,1,2380,,,,,,,,
nisia floresta,-35.21,-6.09,803,Clouds,broken clouds,04n,stations,299.62,302.89,299.15,300.15,1012,83,,,3.1,120,75,1578455862,BR,1578471207,1578516045,-10800,3393922,Nisia Floresta,200,,,,,,10000,1,8417,,,,,,,,
bathsheba,-59.52,13.22,803,Clouds,broken clouds,04n,stations,299.15,297.94,299.15,299.15,1017,74,,,7.7,100,75,1578455863,BB,1578392549,1578433524,-14400,3374083,Bathsheba,200,,,,,,10000,1,8772,,,,,,,,
mount pleasant,-94.97,33.16,800,Clear,clear sky,01n,stations,277.02,273.25,274.82,280.15,1029,56,,,1.8,201,1,1578455863,US,1578403431,1578439663,-21600,4712933,Mount Pleasant,200,,,,,,16093,1,5235,,,,,,,,
tabas,56.92,33.6,800,Clear,clear sky,01d,stations,272.15,268.46,272.15,272.15,1023,54,,,1,90,0,1578455864,IR,1578453441,1578489575,12600,113659,Tabas,200,,,,,,,1,7487,,,,,,,,
vila velha,-38.6,-3.71,802,Clouds,scattered clouds,03n,stations,301.64,305.8,300.37,303.15,1012,78,,,2.6,350,40,1578455864,BR,1578472258,1578516622,-10800,6320062,Vila Velha,200,,,,,,10000,1,8363,,,,,,,,
camabatela,15.37,-8.19,804,Clouds,overcast clouds,04n,model,289.88,291.65,289.88,289.88,1012,97,1012,877,0.45,311,100,1578455864,AO,1578458852,1578504114,3600,2242885,Camabatela,200,,,,,,,,,,,,,,,,
sept-iles,-66.38,50.2,800,Clear,clear sky,01n,stations,251.15,244.04,251.15,251.15,1013,83,,,4.85,267,5,1578455864,CA,1578399821,1578429546,-18000,6144312,Sept-Iles,200,,,,,,24140,1,1013,,,,,,,,
obo,26.49,5.39,800,Clear,clear sky,01n,model,293.71,290.81,293.71,293.71,1010,32,1010,937,2.07,20,1,1578455865,CF,1578457530,1578500097,3600,236950,Obo,200,,,,,,,,,,,,,,,,
luderitz,15.16,-26.65,804,Clouds,overcast clouds,04n,stations,289.15,288.62,289.15,289.15,1010,100,,,3.6,190,100,1578455865,NA,1578456834,1578506234,7200,3355672,Luderitz,200,,,,,,,1,2260,,,,,,,,
namatanai,152.44,-3.66,500,Rain,light rain,10d,model,303,305.92,303,303,1005,72,1005,1004,4.34,259,23,1578455865,PG,1578426399,1578470755,36000,2090021,Namatanai,200,,,,,,,,,2.31,,,,,,,
bikaner,73.32,28.02,802,Clouds,scattered clouds,03d,model,285.49,282.89,285.49,285.49,1016,86,1016,988,3.8,10,46,1578455866,IN,1578448753,1578486389,19800,1275665,Bikaner,200,,,,,,,,,,,,,,,,
duluth,-92.13,46.77,804,Clouds,overcast clouds,04n,stations,256.22,247.47,253.71,258.15,1023,54,,,7.2,320,90,1578455778,US,1578405161,1578436570,-21600,5024719,Duluth,200,,,,,,16093,1,3903,,10.3,,,,,,
quatre cocos,57.76,-20.21,802,Clouds,scattered clouds,03d,stations,298.66,303.62,298.15,299.15,1012,94,,,1.63,236,40,1578455866,MU,1578447387,1578495227,14400,1106643,Quatre Cocos,200,,,,,,10000,1,2061,,,,,,,,
kovdor,30.47,67.56,804,Clouds,overcast clouds,04n,model,272.33,265.56,272.33,272.33,990,91,990,954,6.42,188,100,1578455866,RU,1578473632,1578482084,10800,543508,Kovdor,200,,,,,,,,,,,,,,,,
half moon bay,-122.43,37.46,804,Clouds,overcast clouds,04n,stations,282.86,280.49,280.37,285.15,1021,87,,,2.6,290,90,1578455867,US,1578410672,1578445607,-28800,5354943,Half Moon Bay,200,,,,,,14484,1,4322,,,,,,,,
omboue,9.26,-1.57,804,Clouds,overcast clouds,04n,model,297.43,302.52,297.43,297.43,1009,93,1009,1005,0.28,15,88,1578455867,GA,1578460980,1578504920,3600,2396853,Omboue,200,,,,,,,,,,,,,,,,
xining,101.77,36.62,804,Clouds,overcast clouds,04d,model,268.51,263.94,268.51,268.51,1021,48,1021,757,1.79,289,97,1578455868,CN,1578443130,1578478353,28800,1788852,Xining,200,,,,,,,,,,,,,,,,
port augusta,137.76,-32.49,800,Clear,clear sky,01d,stations,307.85,305.71,306.15,309.82,1012,26,,,4.1,140,0,1578455868,AU,1578426591,1578477611,37800,2063056,Port Augusta,200,,,,,,8000,1,9613,,,,,,,,
takoradi,-1.75,4.89,804,Clouds,overcast clouds,04n,model,298.23,300.59,298.23,298.23,1011,80,1011,1010,2.88,268,88,1578455868,GH,1578464260,1578506927,0,2294915,Takoradi,200,,,,,,,,,,,,,,,,
buta,24.73,2.79,801,Clouds,few clouds,02n,model,292.44,292.38,292.44,292.44,1010,55,1010,959,0.16,247,18,1578455869,CD,1578457696,1578500777,7200,217570,Buta,200,,,,,,,,,,,,,,,,
gramoteino,86.38,54.53,600,Snow,light snow,13d,model,260.9,256.59,260.9,260.9,1032,96,1032,1000,1.53,169,100,1578455869,RU,1578450841,1578478031,25200,1506192,Gramoteino,200,0.38,,,,,,,,,,,,,,,
yemelyanovo,92.69,56.17,803,Clouds,broken clouds,04d,stations,265.15,259.91,265.15,265.15,1028,78,,,3,250,75,1578455869,RU,1578449917,1578475925,25200,1486031,Yemelyanovo,200,,,,,,10000,1,8957,,,,,,,,
progreso,-56.22,-34.68,800,Clear,clear sky,01n,stations,292.1,289.31,292.04,292.15,1008,42,,,2.6,30,0,1578455870,UY,1578472841,1578524498,-10800,3440963,Progreso,200,,,,,,10000,1,8713,,,,,,,,
bilma,12.92,18.69,802,Clouds,scattered clouds,03n,model,284.5,278.38,284.5,284.5,1019,36,1019,966,5.3,23,42,1578455870,NE,1578462158,1578501985,3600,2446796,Bilma,200,,,,,,,,,,,,,,,,
hovd,10.7,63.83,803,Clouds,broken clouds,04n,stations,279.84,271.72,277.59,281.48,979,61,,,8.7,190,75,1578455870,NO,1578473749,1578491460,3600,7626384,Hovd,200,,,,,,10000,1,1676,,,,,,,,
puerto madryn,-65.04,-42.77,801,Clouds,few clouds,02n,model,296.39,285.23,296.39,296.39,995,18,995,987,12.64,269,12,1578455870,AR,1578473521,1578528053,-10800,3840092,Puerto Madryn,200,,,,,,,,,,,,,,,,
necochea,-58.74,-38.55,800,Clear,clear sky,01n,stations,291.11,287.71,289.82,292.59,994,32,,,2.24,315,0,1578455871,AR,1578472807,1578525743,-10800,3430443,Necochea,200,,,,,,,3,264914,,3.13,,,,,,
whitehorse,-135.06,60.72,600,Snow,light snow,13n,stations,250.27,244.34,250.15,250.37,1005,76,,,3.1,350,90,1578455713,CA,1578420287,1578442057,-28800,6180550,Whitehorse,200,,,,,,4828,1,983,,,,,,,,
samarai,150.67,-10.62,804,Clouds,overcast clouds,04d,model,303.69,305.97,303.69,303.69,1006,62,1006,991,3.77,126,100,1578455871,PG,1578426120,1578471884,36000,2132606,Samarai,200,,,,,,,,,,,,,,,,
abu dhabi,54.37,24.47,800,Clear,clear sky,01d,stations,287.62,284.54,287.15,288.15,1018,93,,,5.89,52,0,1578455872,AE,1578452866,1578491375,14400,292968,Abu Dhabi,200,,,,,,9000,1,7533,,,,,,,,
youghal,-7.85,51.95,803,Clouds,broken clouds,04n,stations,281.46,279.13,280.15,282.59,1019,87,,,2.1,220,75,1578455872,IE,1578472639,1578501477,0,2960869,Youghal,200,,,,,,10000,1,1563,,,,,,,,
ahipara,173.16,-35.17,802,Clouds,scattered clouds,03d,stations,296.48,297.33,296.48,296.48,1015,58,,,0.89,112,46,1578455872,NZ,1578417680,1578469525,46800,2194098,Ahipara,200,,,,,,,3,2016422,,2.68,,,,,,
izazi,35.72,-7.24,802,Clouds,scattered clouds,03d,stations,292.15,294.11,292.15,292.15,1019,88,,,0.58,28,40,1578455872,TZ,1578454063,1578499133,10800,158825,Izazi,200,,,,,,10000,1,2611,,,,,,,,
alfenas,-45.95,-21.43,501,Rain,moderate rain,10n,model,293.97,296.91,293.97,293.97,1013,94,1013,916,0.96,270,100,1578455873,BR,1578472147,1578520262,-10800,3472603,Alfenas,200,,,,,,,,,5.31,,,,,,,
kodiak,-94.76,39.95,800,Clear,clear sky,01n,stations,274.12,269.33,272.59,275.37,1023,64,,,3.1,290,1,1578455873,US,1578404447,1578438547,-21600,4407665,Kodiak,200,,,,,,16093,1,4042,,,,,,,,
iquique,-70.14,-20.22,802,Clouds,scattered clouds,03n,stations,295.15,293.93,295.15,295.15,1015,73,,,5.1,220,25,1578455822,CL,1578478096,1578525928,-10800,3887127,Iquique,200,,,,,,10000,1,8492,,,,,,,,
paka,15.03,4.15,800,Clear,clear sky,01n,model,291.72,290.56,291.72,291.72,1011,45,1011,940,0.47,340,0,1578455874,CF,1578460159,1578502971,3600,2386756,Paka,200,,,,,,,,,,,,,,,,
beyneu,55.19,45.32,804,Clouds,overcast clouds,04n,model,271.11,265,271.11,271.11,1028,73,1028,1028,4.83,107,100,1578455875,KZ,1578455879,1578487968,18000,610298,Beyneu,200,,,,,,,,,,,,,,,,
letka,17.27,43.74,800,Clear,clear sky,01n,stations,272.07,267.11,272.04,272.15,1026,46,,,2.6,130,0,1578455875,BA,1578464656,1578497399,3600,3200930,Letka,200,,,,,,10000,1,6905,,,,,,,,
omagari,140.48,39.45,520,Rain,light intensity shower rain,09d,stations,274.4,269.39,273.15,276.15,998,100,,,4.6,130,75,1578455875,JP,1578434301,1578468595,32400,2111435,Omagari,200,,,,,,10000,1,8048,,,,,,,,
prince rupert,-130.32,54.32,804,Clouds,overcast clouds,04n,stations,271.15,266.35,271.15,271.15,1006,79,,,3.1,340,90,1578455875,CA,1578416392,1578443676,-28800,6113406,Prince Rupert,200,,,,,,14484,1,883,,,,,,,,
talgar,77.24,43.3,701,Mist,mist,50d,stations,269.15,265.25,269.15,269.15,1027,100,,,2,80,90,1578455876,KZ,1578450178,1578483082,21600,1518518,Talgar,200,,,,,,3200,1,8818,,,,,,,,
belyy yar,91.39,53.6,701,Mist,mist,50d,stations,258.15,254.17,258.15,258.15,1030,84,,,0.73,106,40,1578455876,RU,1578449332,1578477134,25200,1510377,Belyy Yar,200,,,,,,1500,1,8942,,,,,,,,
aswan,32.9,24.09,800,Clear,clear sky,01n,model,280.84,275.96,280.84,280.84,1021,61,1021,994,4.28,346,0,1578455648,EG,1578457974,1578496576,7200,359792,Aswan,200,,,,,,,,,,,,,,,,
touros,-35.46,-5.2,803,Clouds,broken clouds,04n,stations,299.15,304.53,299.15,299.15,1012,88,,,0.5,,75,1578455877,BR,1578471356,1578516016,-10800,3386213,Touros,200,,,,,,10000,1,8452,,,,,,,,
swarzedz,17.09,52.41,701,Mist,mist,50n,stations,274.77,270.36,274.26,275.93,1025,93,,,3.6,200,56,1578455877,PL,1578466790,1578495350,3600,3084130,Swarzedz,200,,,,,,5000,1,1710,,,,,,,,
coruripe,-36.18,-10.12,800,Clear,clear sky,01n,model,298.98,300.27,298.98,298.98,1013,77,1013,1010,4.49,86,0,1578455877,BR,1578471032,1578516686,-10800,3465329,Coruripe,200,,,,,,,,,,,,,,,,
manta,24.1,45.1,800,Clear,clear sky,01n,model,269.78,266.7,269.78,269.78,1031,61,1031,982,0.05,278,0,1578455877,RO,1578463293,1578495482,7200,685981,Manta,200,,,,,,,,,,,,,,,,
mahebourg,57.7,-20.41,802,Clouds,scattered clouds,03d,stations,298.6,303.47,298.15,299.15,1012,94,,,1.7,163,40,1578455878,MU,1578447378,1578495264,14400,934322,Mahebourg,200,,,,,,10000,1,2061,,,,,,,,
carnarvon,22.13,-30.97,500,Rain,light rain,10d,model,291.14,289.83,291.14,291.14,1009,82,1009,866,4.11,353,69,1578455878,ZA,1578454577,1578505143,7200,1014034,Carnarvon,200,,,,,,,,,1.25,,,,,,,
capitan bado,-55.53,-23.27,803,Clouds,broken clouds,04n,model,295.36,297.58,295.36,295.36,1008,92,1008,963,2.7,37,65,1578455878,PY,1578387787,1578436370,-14400,3439189,Capitan Bado,200,,,,,,,,,,,,,,,,
astoria,-123.83,46.19,501,Rain,moderate rain,10n,stations,281.55,275.89,279.82,282.59,1008,93,,,7.2,250,90,1578455674,US,1578412638,1578444313,-28800,5711847,Astoria,200,,701,Mist,mist,50n,8047,1,3328,,11.3,1.4,,,,,
berdigestyakh,126.7,62.1,600,Snow,light snow,13d,model,260.94,256.52,260.94,260.94,1013,96,1013,980,1.69,256,91,1578455879,RU,1578444680,1578464833,32400,2026861,Berdigestyakh,200,0.13,,,,,,,,,,,,,,,
merauke,140.4,-8.49,500,Rain,light rain,10d,model,304.68,308.7,304.68,304.68,1006,66,1006,1005,2.9,347,100,1578455879,ID,1578428804,1578474131,32400,2082539,Merauke,200,,,,,,,,,1,,,,,,,
san ramon,-85.84,12.92,800,Clear,clear sky,01n,model,291.86,290.84,291.86,291.86,1017,81,1017,918,3.97,46,1,1578455880,NI,1578398836,1578439875,-21600,3616584,San Ramon,200,,,,,,,,,,,,,,,,
shebunino,40.04,57.66,804,Clouds,overcast clouds,04n,stations,272.15,267.92,272.15,272.15,1020,100,,,3,210,90,1578455880,RU,1578463144,1578487977,10800,468902,Shebunino,200,,,,,,10000,1,9023,,,,,,,,
ambilobe,49.05,-13.19,804,Clouds,overcast clouds,04d,model,297.77,302.04,297.77,297.77,1013,89,1013,1009,1.14,99,90,1578455880,MG,1578450250,1578496546,10800,1082243,Ambilobe,200,,,,,,,,,,,,,,,,
flin flon,-101.88,54.77,800,Clear,clear sky,01n,model,243.8,238.57,243.8,243.8,1030,96,1030,983,2,272,0,1578455880,CA,1578409723,1578436690,-21600,5954718,Flin Flon,200,,,,,,,,,,,,,,,,
sobolevo,31.9,54.43,804,Clouds,overcast clouds,04n,model,272.28,267.19,272.28,272.28,1026,94,1026,1000,4.1,231,100,1578455881,RU,1578463877,1578491153,10800,525426,Sobolevo,200,,,,,,,,,,,,,,,,
mersing,103.84,2.43,804,Clouds,overcast clouds,04d,model,300.19,300.6,300.19,300.19,1011,82,1011,1011,7.47,7,100,1578455881,MY,1578438669,1578481820,28800,1732826,Mersing,200,,,,,,,,,,,,,,,,
lavrentiya,-170.99,65.58,800,Clear,clear sky,01n,model,248.61,243.75,248.61,248.61,1024,95,1024,1019,1.6,261,0,1578455881,RU,1578518942,1578533503,43200,4031637,Lavrentiya,200,,,,,,,,,,,,,,,,
makakilo city,-158.09,21.35,802,Clouds,scattered clouds,03d,stations,297.32,296.17,296.15,298.15,1019,69,,,5.7,60,40,1578455725,US,1578417090,1578456311,-36000,5850554,Makakilo City,200,,,,,,16093,1,7866,,,,,,,,
diofior,-16.66,14.19,801,Clouds,few clouds,02n,stations,290.45,283.75,290.15,291.15,1014,36,,,7.2,30,22,1578455882,SN,1578468779,1578509567,0,2252473,Diofior,200,,,,,,8000,1,2410,,,,,,,,
poltavka,71.76,54.36,804,Clouds,overcast clouds,04d,model,258.09,254.22,258.09,258.09,1031,98,1031,1017,0.69,17,100,1578455883,RU,1578454291,1578481600,21600,1494500,Poltavka,200,,,,,,,,,,,,,,,,
ancud,-73.83,-41.87,500,Rain,light rain,10n,stations,284.15,280.22,284.15,284.15,1003,76,,,4.6,300,40,1578455883,CL,1578475813,1578529982,-10800,3899695,Ancud,200,,,,,,10000,1,8512,,,,,,,,
novocheremshansk,50.17,54.35,802,Clouds,scattered clouds,03n,model,260.42,256.54,260.42,260.42,1030,97,1030,1015,0.88,205,33,1578455883,RU,1578459467,1578486790,14400,518972,Novocheremshansk,200,,,,,,,,,,,,,,,,
shingu,135.99,33.72,803,Clouds,broken clouds,04d,stations,290.15,286.18,290.15,290.15,1003,63,,,5.7,320,75,1578455883,JP,1578434482,1578470570,32400,1847947,Shingu,200,,,,,,10000,1,7959,,,,,,,,
tlaltenango,-98.35,19.17,800,Clear,clear sky,01n,model,281.01,275.11,281.01,281.01,1025,52,1025,761,5.31,357,0,1578455884,MX,1578402506,1578442211,-21600,3515420,Tlaltenango,200,,,,,,,,,,,,,,,,
palmer,139.16,-34.85,800,Clear,clear sky,01d,stations,305.69,302.39,304.82,306.48,1016,19,,,3.37,96,0,1578455884,AU,1578425895,1578477635,37800,2067070,Palmer,200,,,,,,,3,2018590,,,,,,,,
pangnirtung,-65.72,66.15,800,Clear,clear sky,01n,model,231.44,227.04,231.44,231.44,999,73,999,965,0.63,17,10,1578455884,CA,1578408145,1578420906,-18000,6096551,Pangnirtung,200,,,,,,,,,,,,,,,,
avera,-82.53,33.19,800,Clear,clear sky,01n,stations,281.21,277.73,278.71,284.15,1025,56,,,2.1,290,1,1578455885,US,1578400450,1578436672,-18000,4231997,Avera,200,,,,,,16093,1,2827,,,,,,,,
morondava,44.28,-20.3,800,Clear,clear sky,01d,model,298.1,302.75,298.1,298.1,1012,86,1012,1003,0.41,76,0,1578455885,MG,1578450613,1578498473,10800,1058381,Morondava,200,,,,,,,,,,,,,,,,
bodden town,-81.25,19.28,802,Clouds,scattered clouds,03n,stations,297.94,296.76,297.59,298.15,1020,73,,,6.71,26,33,1578455885,KY,1578398414,1578438093,-18000,3580733,Bodden Town,200,,,,,,,3,2021106,,11.18,,,,,,
formosa,-47.33,-15.55,500,Rain,light rain,10n,model,292.59,294.07,292.59,292.59,1014,97,1014,899,2.47,283,100,1578455886,BR,1578473138,1578519933,-10800,3463140,Formosa,200,,,,,,,,,1.56,,,,,,,
los llanos de aridane,-17.92,28.66,803,Clouds,broken clouds,04n,stations,288.97,285.83,287.04,291.15,1028,63,,,4.1,330,75,1578455886,ES,1578470734,1578508217,0,2514651,Los Llanos de Aridane,200,,,,,,10000,1,2377,,,,,,,,
vostok,135.83,46.45,803,Clouds,broken clouds,04d,model,266.11,261.65,266.11,266.11,1014,77,1014,934,1.96,358,83,1578455886,RU,1578436773,1578468356,36000,2013279,Vostok,200,,,,,,,,,,,,,,,,
lakatoro,167.42,-16.11,804,Clouds,overcast clouds,04d,stations,303.15,309.05,303.15,303.15,1010,94,,,4.6,110,100,1578455887,VU,1578421516,1578468445,39600,2136697,Lakatoro,200,,,,,,,1,7310,,,,,,,,
ust-nera,143.24,64.57,804,Clouds,overcast clouds,04d,model,239.78,235.59,239.78,239.78,1017,100,1017,888,0.44,234,100,1578455887,RU,1578442619,1578458952,36000,2120048,Ust-Nera,200,,,,,,,,,,,,,,,,
ventanas,-71.48,-32.74,800,Clear,clear sky,01n,stations,287.15,286.4,287.15,287.15,1015,93,,,2.35,193,0,1578455888,CL,1578476801,1578527866,-10800,3868621,Ventanas,200,,,,,,10000,1,8520,,,,,,,,
sikonge,32.75,-5.63,803,Clouds,broken clouds,04d,stations,292.15,294.35,292.15,292.15,1017,100,,,1.48,108,75,1578455888,TZ,1578454937,1578499684,10800,149929,Sikonge,200,,,,,,10000,1,2625,,,,,,,,
livingston,-88.19,32.58,800,Clear,clear sky,01n,stations,277.04,273.74,276.15,277.59,1029,75,,,1.85,315,1,1578455888,US,1578401722,1578438117,-21600,4073383,Livingston,200,,,,,,16093,1,3893,,,,,,,,
huarmey,-78.15,-10.07,801,Clouds,few clouds,02n,model,292.65,294.12,292.65,292.65,1017,85,1017,960,1.24,222,14,1578455889,PE,1578394682,1578440337,-18000,3939168,Huarmey,200,,,,,,,,,,,,,,,,
port shepstone,30.45,-30.74,804,Clouds,overcast clouds,04d,model,294.62,296.91,294.62,294.62,1012,96,1012,988,2.57,19,100,1578455889,ZA,1578452612,1578503114,7200,964406,Port Shepstone,200,,,,,,,,,,,,,,,,
zhaotong,103.71,27.34,800,Clear,clear sky,01d,model,280.9,278.8,280.9,280.9,1016,73,1016,771,0.91,207,0,1578455889,CN,1578441373,1578479178,28800,1784841,Zhaotong,200,,,,,,,,,,,,,,,,
bundaberg,152.35,-24.87,800,Clear,clear sky,01d,stations,305.75,303.54,305.37,306.15,1013,31,,,4.6,60,0,1578455889,AU,1578424117,1578473080,36000,2173323,Bundaberg,200,,,,,,10000,1,9501,,,,,,,,
sorland,12.69,67.67,500,Rain,light rain,10n,model,279.53,265.15,279.53,279.53,968,89,968,967,18.85,193,100,1578455890,NO,1578478130,1578486123,3600,3137469,Sorland,200,,,,,,,,,1.5,,,,,,,
dudinka,86.18,69.41,620,Snow,light shower snow,13n,stations,257.15,247.34,257.15,257.15,1008,84,,,9,200,75,1578455890,RU,0,0,25200,1507116,Dudinka,200,,,,,,2400,1,8951,,,,,,,,
robertsport,-11.37,6.75,800,Clear,clear sky,01n,model,300.31,301.96,300.31,300.31,1011,73,1011,1011,4.27,281,0,1578455890,LR,1578466754,1578509052,0,2274275,Robertsport,200,,,,,,,,,,,,,,,,
mercedes,-58.03,-33.25,800,Clear,clear sky,01n,stations,293.15,292.84,293.15,293.15,1010,56,,,0.89,,0,1578455890,UY,1578473495,1578524714,-10800,3441684,Mercedes,200,,,,,,,3,2019898,,1.79,,,,,,
sao luiz gonzaga,-54.96,-28.41,800,Clear,clear sky,01n,model,293.2,289.96,293.2,293.2,1009,44,1009,989,3.77,116,0,1578455891,BR,1578473441,1578523294,-10800,3448552,Sao Luiz Gonzaga,200,,,,,,,,,,,,,,,,
ambon,-2.56,47.55,741,Fog,fog,50n,stations,285.2,282.97,284.82,285.93,1026,100,,,4.1,220,90,1578455891,FR,1578470230,1578501346,3600,3037899,Ambon,200,,,,,,700,1,6576,,,,,,,,
cervo,-46.24,-22.19,501,Rain,moderate rain,10n,model,292.66,293.63,292.66,292.66,1013,91,1013,888,2.61,242,100,1578455891,BR,1578472127,1578520421,-10800,3469169,Cervo,200,,,,,,,,,4.13,,,,,,,
tibiao,122.03,11.29,804,Clouds,overcast clouds,04d,model,300.54,300.45,300.54,300.54,1012,77,1012,1007,7.62,58,100,1578455892,PH,1578435187,1578476567,28800,1682405,Tibiao,200,,,,,,,,,,,,,,,,
paamiut,-49.67,61.99,600,Snow,light snow,13n,model,264.69,256.91,264.69,264.69,991,61,991,977,6.33,242,100,1578455892,GL,1578486900,1578507295,-10800,3421193,Paamiut,200,0.81,,,,,,,,,,,,,,,
truth or consequences,-107.25,33.13,800,Clear,clear sky,01n,stations,274.82,268.96,273.71,276.15,1024,29,,,3.6,320,1,1578455892,US,1578406374,1578442616,-25200,5495292,Truth or Consequences,200,,,,,,16093,1,6005,,,,,,,,
laguna,-88.94,16.17,500,Rain,light rain,10n,stations,294.15,298.13,294.15,294.15,1022,100,,,0.3,275,87,1578455893,BZ,1578399922,1578440277,-21600,3581398,Laguna,200,,,,,,7000,1,7081,,,,,,,,
yuzhne,33.85,48.22,800,Clear,clear sky,01n,stations,267.15,261.99,267.15,267.15,1028,73,,,3,360,0,1578455893,UA,1578461651,1578492442,7200,693325,Yuzhne,200,,,,,,10000,1,8904,,,,,,,,
karratha,116.85,-20.74,804,Clouds,overcast clouds,04d,model,304.51,308.07,304.51,304.51,999,66,999,999,3.42,179,100,1578455893,AU,1578433137,1578481104,28800,6620339,Karratha,200,,,,,,,,,,,,,,,,
sangar,127.47,63.92,802,Clouds,scattered clouds,03d,model,247.78,243.19,247.78,247.78,1013,95,1013,1001,1.19,130,50,1578455894,RU,1578445830,1578463313,32400,2017215,Sangar,200,,,,,,,,,,,,,,,,
bloemfontein,26.22,-29.12,500,Rain,light rain,10d,stations,290.15,289.56,290.15,290.15,1018,93,,,3.6,10,90,1578455894,ZA,1578453852,1578503905,7200,1018725,Bloemfontein,200,,,,,,10000,1,1884,,,,,,,,
tanout,8.88,14.97,804,Clouds,overcast clouds,04n,model,288.68,281.1,288.68,288.68,1016,17,1016,957,6.53,50,98,1578455894,NE,1578462729,1578503353,3600,2439155,Tanout,200,,,,,,,,,,,,,,,,
galveston,-86.19,40.58,804,Clouds,overcast clouds,04n,stations,275.14,268.87,274.15,276.48,1019,74,,,5.7,260,90,1578455895,US,1578402501,1578436378,-18000,4920577,Galveston,200,,,,,,16093,1,4107,,,,,,,,
muros,-9.06,42.77,741,Fog,fog,50n,stations,284.32,283.64,281.15,287.04,1031,100,,,1.5,140,75,1578455895,ES,1578470786,1578503911,3600,3115824,Muros,200,,,,,,2000,1,6434,,,,,,,,
lujan,-67.67,-46.57,800,Clear,clear sky,01n,model,287.28,274.19,287.28,287.28,989,35,989,978,15.64,281,0,1578455895,AR,1578473312,1578529526,-10800,3863379,Lujan,200,,,,,,,,,,,,,,,,
lavassaare,24.37,58.51,804,Clouds,overcast clouds,04n,stations,277.3,270.65,277.04,277.59,1011,87,,,7.15,204,100,1578455895,EE,1578467276,1578491369,7200,590747,Lavassaare,200,,,,,,,3,2016233,0.06,11.62,,,,,,
russell,-98.86,38.9,800,Clear,clear sky,01n,stations,274.22,268.85,271.15,276.48,1022,69,,,4.1,190,1,1578455896,US,1578405252,1578439711,-21600,4278471,Russell,200,,,,,,16093,1,5716,,,,,,,,
starodub,32.76,52.58,804,Clouds,overcast clouds,04n,model,271.54,267.14,271.54,271.54,1028,90,1028,1007,2.87,257,100,1578455896,RU,1578463082,1578491535,10800,488852,Starodub,200,,,,,,,,,,,,,,,,
santa fe,-60.7,-31.62,800,Clear,clear sky,01n,stations,296.3,297.93,295.37,297.04,1009,67,,,0.89,293,0,1578455897,AR,1578474375,1578525116,-10800,3836277,Santa Fe,200,,,,,,,3,2000096,,1.79,,,,,,
jiazi,110.49,19.61,803,Clouds,broken clouds,04d,stations,296.15,295.86,296.15,296.15,1020,78,,,5,50,75,1578455897,CN,1578438839,1578478457,28800,1894019,Jiazi,200,,,,,,10000,1,9635,,,,,,,,
witu,40.44,-2.39,501,Rain,moderate rain,10d,model,298.03,301.92,298.03,298.03,1011,92,1011,1010,2.33,8,96,1578455898,KE,1578453413,1578497516,10800,178093,Witu,200,,,,,,,,,4.06,,,,,,,
aykhal,111.51,65.95,803,Clouds,broken clouds,04d,stations,257.15,252.24,257.15,257.15,1007,84,,,2,270,84,1578455898,RU,1578451682,1578465124,32400,2027296,Aykhal,200,,,,,,10000,1,8846,,,,,,,,
lower hutt,174.91,-41.21,804,Clouds,overcast clouds,04d,stations,289.94,286.43,289.15,290.93,1016,59,,,4.6,170,100,1578455898,NZ,1578416203,1578470162,46800,2188164,Lower Hutt,200,,,,,,10000,1,7358,,,,,,,,
banda aceh,95.32,5.56,804,Clouds,overcast clouds,04d,model,300.91,301.68,300.91,300.91,1011,62,1011,990,4.05,101,93,1578455899,ID,1578441024,1578483556,25200,1215502,Banda Aceh,200,,,,,,,,,,,,,,,,
zhanaozen,52.85,43.35,804,Clouds,overcast clouds,04n,model,271.28,261.97,271.28,271.28,1023,64,1023,996,9.19,113,95,1578455899,KZ,1578456041,1578488930,18000,607610,Zhanaozen,200,,,,,,,,,,,,,,,,
abancay,-72.88,-13.64,500,Rain,light rain,10n,model,284.93,283.47,284.93,284.93,1018,95,1018,710,2.55,285,100,1578455899,PE,1578393042,1578439446,-18000,3948642,Abancay,200,,,,,,,,,0.13,,,,,,,
penzance,-5.53,50.12,701,Mist,mist,50n,stations,284.02,280.32,283.15,285.37,1021,100,,,5.7,260,98,1578455899,GB,1578471577,1578501425,0,2640377,Penzance,200,,,,,,5000,1,1403,,,,,,,,
westport,-73.36,41.14,500,Rain,light rain,10n,stations,273.98,270.09,272.59,275.37,1011,90,,,2.6,350,90,1578455900,US,1578399522,1578433196,-18000,4845585,Westport,200,,600,Snow,light snow,13n,4828,1,3409,,,0.34,701,Mist,mist,50n,0.25
maltahohe,16.98,-24.83,800,Clear,clear sky,01n,model,291.21,287.7,291.21,291.21,1009,43,1009,851,3.49,233,0,1578455900,NA,1578456627,1578505567,7200,3355624,Maltahohe,200,,,,,,,,,,,,,,,,
mochumi,-79.86,-6.55,804,Clouds,overcast clouds,04n,stations,292.15,286.68,292.15,292.15,1014,29,,,5.1,180,100,1578455900,PE,1578395451,1578440388,-18000,3694720,Mochumi,200,,,,,,10000,1,8680,,,,,,,,
hofn,-15.21,64.25,600,Snow,light snow,13n,model,273.41,253.56,273.41,273.41,964,57,964,963,24.32,252,100,1578455901,IS,1578480313,1578497336,0,2630299,Hofn,200,0.25,,,,,,,,,,,,,,,
virginia beach,-75.98,36.85,800,Clear,clear sky,01n,stations,276.1,271.9,274.82,277.59,1020,93,,,3.6,270,1,1578455785,US,1578399427,1578434550,-18000,4791259,Virginia Beach,200,,,,,,11265,1,3680,,,,,,,,
dawson creek,-120.23,55.76,804,Clouds,overcast clouds,04n,stations,249.39,243.09,248.15,251.15,1008,76,,,3.6,350,90,1578455612,CA,1578414480,1578440743,-25200,5935804,Dawson Creek,200,,,,,,14484,1,783,,,,,,,,
zimmi,-11.31,7.31,800,Clear,clear sky,01n,model,294.13,297.52,294.13,294.13,1011,91,1011,1001,0.07,222,0,1578455902,SL,1578466795,1578508982,0,2402689,Zimmi,200,,,,,,,,,,,,,,,,
batemans bay,150.18,-35.71,803,Clouds,broken clouds,04d,stations,293.71,294.28,293.71,293.71,1003,77,,,2.24,92,79,1578455902,AU,1578423112,1578475127,39600,2176639,Batemans Bay,200,,,,,,,3,2004986,,5.81,,,,,,
salinopolis,-47.36,-0.61,500,Rain,light rain,10n,model,300.82,301.86,300.82,300.82,1012,77,1012,1012,6.22,45,57,1578455902,BR,1578474667,1578518418,-10800,3389822,Salinopolis,200,,,,,,,,,1.31,,,,,,,
lithakia,20.83,37.72,800,Clear,clear sky,01n,stations,275.4,270.6,270.15,278.71,1021,92,,,4.25,66,0,1578455903,GR,1578462729,1578497616,7200,258241,Lithakia,200,,,,,,10000,1,6608,,,,,,,,
dzilam gonzalez,-88.93,21.28,802,Clouds,scattered clouds,03n,model,296.27,292.36,296.27,296.27,1024,64,1024,1024,8.38,40,50,1578455903,MX,1578400481,1578439713,-21600,3529654,Dzilam Gonzalez,200,,,,,,,,,,,,,,,,
tommot,126.27,58.97,600,Snow,light snow,13d,model,264.97,258.8,264.97,264.97,1017,93,1017,958,4.54,268,100,1578455904,RU,1578443049,1578466670,32400,2015179,Tommot,200,0.56,,,,,,,,,,,,,,,
baie-comeau,-68.15,49.22,804,Clouds,overcast clouds,04n,stations,263.03,258.77,258.15,265.93,1014,84,,,1.5,220,90,1578455904,CA,1578399992,1578430225,-18000,5889745,Baie-Comeau,200,,,,,,14484,1,747,,,,,,,,
de-kastri,140.77,51.48,804,Clouds,overcast clouds,04d,model,262.94,256.65,262.94,262.94,1014,78,1014,1011,4.31,294,100,1578455904,RU,1578436846,1578465911,36000,2126018,De-Kastri,200,,,,,,,,,,,,,,,,
la rioja,-66.86,-29.41,800,Clear,clear sky,01n,model,293.43,292.6,293.43,293.43,1004,63,1004,867,2.52,42,0,1578455880,AR,1578476164,1578526285,-10800,3848950,La Rioja,200,,,,,,,,,,,,,,,,
kashan,51.44,33.99,800,Clear,clear sky,01d,model,276.93,273.27,276.93,276.93,1022,66,1022,903,2.01,306,0,1578455905,IR,1578454813,1578490835,12600,128477,Kashan,200,,,,,,,,,,,,,,,,
kahului,-156.47,20.89,500,Rain,light rain,10d,stations,295.56,291.62,294.15,298.15,1019,65,,,8.2,50,40,1578455905,US,1578416649,1578455974,-36000,5847411,Kahului,200,,,,,,16093,1,7879,,12.9,0.25,,,,,
isabela,122.99,10.2,804,Clouds,overcast clouds,04d,model,299.11,298.47,299.11,299.11,1011,65,1011,958,5.45,72,96,1578455905,PH,1578434846,1578476448,28800,1710518,Isabela,200,,,,,,,,,,,,,,,,
adrar,-0.29,27.87,800,Clear,clear sky,01n,stations,280.15,273.88,280.15,280.15,1023,52,,,5.7,20,0,1578455906,DZ,1578466402,1578504084,3600,2508813,Adrar,200,,,,,,10000,1,1098,,,,,,,,
songjianghe,127.48,42.18,600,Snow,light snow,13d,model,265.65,261.58,265.65,265.65,1016,86,1016,910,1.51,327,100,1578455906,CN,1578437908,1578471230,28800,2034691,Songjianghe,200,0.38,,,,,,,,,,,,,,,
chapada dos guimaraes,-55.75,-15.46,501,Rain,moderate rain,10n,stations,301.15,303.56,301.15,301.15,1012,69,,,3.1,300,100,1578455906,BR,1578388734,1578435529,-14400,3466307,Chapada dos Guimaraes,200,,,,,,10000,1,8352,11.56,,,,,,,
altoona,-78.39,40.52,802,Clouds,scattered clouds,03n,stations,269.57,264.82,266.15,272.59,1012,92,,,3.1,200,40,1578455705,US,1578400618,1578434515,-18000,5178195,Altoona,200,,,,,,16093,1,4099,,,,,,,,
mugur-aksy,90.44,50.38,804,Clouds,overcast clouds,04d,model,255.26,250.39,255.26,255.26,1037,56,1037,760,1.64,281,100,1578455907,RU,1578448619,1578478303,25200,1498283,Mugur-Aksy,200,,,,,,,,,,,,,,,,
kattivakkam,80.32,13.22,721,Haze,haze,50d,stations,300.69,302.17,300.37,301.15,1016,69,,,4.1,50,40,1578455907,IN,1578445398,1578486383,19800,1267433,Kattivakkam,200,,,,,,5000,1,9218,,,,,,,,
quang ngai,108.8,15.12,500,Rain,light rain,10d,model,297.81,299.31,297.81,297.81,1017,82,1017,1017,4.11,354,100,1578455907,VN,1578438760,1578479347,25200,1568770,Quang Ngai,200,,,,,,,,,0.63,,,,,,,
richards bay,32.06,-28.77,804,Clouds,overcast clouds,04d,model,297.81,296.44,297.81,297.81,1013,80,1013,1012,7.91,18,100,1578455908,ZA,1578452497,1578502456,7200,962367,Richards Bay,200,,,,,,,,,,,,,,,,
dwarka,77.04,28.58,200,Thunderstorm,thunderstorm with light rain,11d,stations,286.15,285.26,286.15,286.15,1015,100,,,2.6,10,90,1578455908,IN,1578447932,1578485425,19800,1273294,Dwarka,200,,,,,,700,1,9165,,,,,,,,
shimanovsk,127.67,52,800,Clear,clear sky,01d,model,255.32,249.78,255.32,255.32,1026,90,1026,985,2.84,326,0,1578455908,RU,1578440139,1578468908,32400,2016701,Shimanovsk,200,,,,,,,,,,,,,,,,
jalu,21.55,29.03,803,Clouds,broken clouds,04n,model,283.14,279.81,283.14,283.14,1023,80,1023,1016,3.67,303,71,1578455908,LY,1578461308,1578498691,7200,86049,Jalu,200,,,,,,,,,,,,,,,,
tual,132.75,-5.67,500,Rain,light rain,10d,model,301.06,303.49,301.06,301.06,1007,78,1007,1003,4.59,305,100,1578455909,ID,1578430925,1578475682,32400,1623197,Tual,200,,,,,,,,,2.81,,,,,,,
coahuayana,-100.35,18.62,802,Clouds,scattered clouds,03n,model,296.37,295.22,296.37,296.37,1017,43,1017,951,1.69,72,31,1578455909,MX,1578402926,1578442752,-21600,3981460,Coahuayana,200,,,,,,,,,,,,,,,,
bereda,-7.54,43.27,804,Clouds,overcast clouds,04n,stations,282.06,279.65,277.59,287.04,1030,100,,,3.1,190,90,1578455910,ES,1578470517,1578503449,3600,3105522,Bereda,200,,,,,,10000,1,6403,,,,,,,,
koulikoro,-7.56,12.86,800,Clear,clear sky,01n,stations,292.15,287.85,292.15,292.15,1015,21,,,2.6,20,0,1578455910,ML,1578466456,1578507520,0,2454530,Koulikoro,200,,,,,,10000,1,2354,,,,,,,,
ostrovnoy,39.51,68.05,500,Rain,light rain,10n,model,274.6,266.32,274.6,274.6,994,92,994,976,9.06,226,100,1578455910,RU,1578472736,1578478640,10800,556268,Ostrovnoy,200,,,,,,,,,0.13,,,,,,,
staraya poltavka,46.48,50.48,600,Snow,light snow,13n,model,269.98,265.4,269.98,269.98,1027,96,1027,1023,3.01,121,100,1578455911,RU,1578459194,1578488836,14400,489102,Staraya Poltavka,200,0.69,,,,,,,,,,,,,,,
komsomolskiy,63.78,67.55,600,Snow,light snow,13n,model,256.03,250.26,256.03,256.03,1017,97,1017,996,3.26,186,98,1578455911,RU,1578465641,1578474082,10800,1486910,Komsomolskiy,200,0.13,,,,,,,,,,,,,,,
aleysk,82.77,52.5,804,Clouds,overcast clouds,04d,model,259.11,254.19,259.11,259.11,1032,86,1032,1006,2.15,223,94,1578455911,RU,1578451059,1578479546,25200,1511783,Aleysk,200,,,,,,,,,,,,,,,,
ypsonas,32.96,34.69,200,Thunderstorm,thunderstorm with light rain,11n,stations,282.42,279.25,281.48,283.15,1007,87,,,3.6,80,40,1578455911,CY,1578459351,1578495170,7200,145952,Ypsonas,200,,,,,,10000,1,6374,,,,,,,,
russkaya polyana,73.88,53.78,804,Clouds,overcast clouds,04d,model,259.95,256.01,259.95,259.95,1031,96,1031,1017,0.92,337,100,1578455912,RU,1578453591,1578481282,21600,1493423,Russkaya Polyana,200,,,,,,,,,,,,,,,,
manjacaze,33.88,-24.71,800,Clear,clear sky,01d,model,294.15,297.68,294.15,294.15,1012,96,1012,1006,0.47,70,0,1578455912,MZ,1578452584,1578501495,7200,1040938,Manjacaze,200,,,,,,,,,,,,,,,,
surin,103.49,14.88,803,Clouds,broken clouds,04d,stations,303.01,306.4,300.15,304.82,1016,61,,,1.5,100,78,1578455912,TH,1578440009,1578480647,25200,1606030,Surin,200,,,,,,10000,1,9292,,,,,,,,
eura,22.13,61.13,521,Rain,shower rain,09n,stations,277.62,270.81,277.04,278.15,997,93,,,7.7,200,90,1578455913,FI,1578469159,1578490562,7200,660080,Eura,200,,,,,,9000,1,1353,,13.4,,,,,,
ndola,28.64,-12.97,804,Clouds,overcast clouds,04d,model,290.74,292.19,290.74,290.74,1014,96,1014,873,1.29,69,100,1578455913,ZM,1578455173,1578501422,7200,901344,Ndola,200,,,,,,,,,,,,,,,,
kijang,129.21,35.24,803,Clouds,broken clouds,04d,stations,284.15,276.92,284.15,284.15,1012,50,,,7.7,310,75,1578455913,KR,1578436333,1578471974,32400,1842966,Kijang,200,,,,,,10000,1,8086,,,,,,,,
alegrete,-55.79,-29.79,800,Clear,clear sky,01n,model,292.8,288.65,292.8,292.8,1009,37,1009,992,4.19,135,0,1578455914,BR,1578473453,1578523680,-10800,3472638,Alegrete,200,,,,,,,,,,,,,,,,
szecseny,19.52,48.08,800,Clear,clear sky,01n,stations,264.95,261.4,262.15,267.04,1031,85,,,0.67,57,0,1578455914,HU,1578465056,1578495918,3600,3044809,Szecseny,200,,,,,,10000,1,7039,,,,,,,,
biak,122.88,-0.91,500,Rain,light rain,10d,model,302.54,303,302.54,302.54,1009,69,1009,1008,6.91,4,100,1578455914,ID,1578433768,1578477579,28800,1637001,Biak,200,,,,,,,,,0.25,,,,,,,
basco,-91.2,40.33,800,Clear,clear sky,01n,stations,273.76,268.78,272.15,275.93,1022,73,,,3.6,360,1,1578455915,US,1578403659,1578437625,-21600,4863349,Basco,200,,,,,,16093,1,3996,,,,,,,,
puri,112.45,-7.54,500,Rain,light rain,10d,model,302.57,306.81,302.57,302.57,1009,69,1009,990,1.54,316,75,1578455915,ID,1578435611,1578480744,25200,1635111,Puri,200,,,,,,,,,0.75,,,,,,,
chiradzulu,35.18,-15.7,803,Clouds,broken clouds,04d,model,294.22,297.1,294.22,294.22,1012,92,1012,943,0.98,109,82,1578455915,MW,1578453311,1578500144,7200,930580,Chiradzulu,200,,,,,,,,,,,,,,,,
sohbatpur,68.54,28.52,800,Clear,clear sky,01d,model,284.61,281.46,284.61,284.61,1018,73,1018,1010,3.43,326,0,1578455916,PK,1578449964,1578487474,18000,1164660,Sohbatpur,200,,,,,,,,,,,,,,,,
abu samrah,37.18,35.3,804,Clouds,overcast clouds,04n,model,280.36,275.99,280.36,280.36,1011,85,1011,965,4.6,118,93,1578455916,SY,1578458429,1578494066,7200,172515,Abu Samrah,200,,,,,,,,,,,,,,,,
ossora,163.07,59.24,600,Snow,light snow,13d,model,267.1,256.42,267.1,267.1,1006,94,1006,1005,11.27,39,100,1578455916,RU,1578434352,1578457697,43200,2122389,Ossora,200,1.31,,,,,,,,,,,,,,,
pinega,43.39,64.7,600,Snow,light snow,13n,model,272.48,266.7,272.48,272.48,1006,96,1006,999,5.17,185,100,1578455917,RU,1578466673,1578482840,10800,509483,Pinega,200,0.75,,,,,,,,,,,,,,,
santo antonio da platina,-50.08,-23.3,804,Clouds,overcast clouds,04n,model,293.12,295.22,293.12,293.12,1010,96,1010,949,1.82,7,100,1578455917,BR,1578472917,1578521475,-10800,3449529,Santo Antonio da Platina,200,,,,,,,,,,,,,,,,
guymon,-101.48,36.68,800,Clear,clear sky,01n,stations,275.15,269.47,275.15,275.15,1022,51,,,4.1,180,1,1578455918,US,1578405520,1578440700,-21600,5515743,Guymon,200,,,,,,16093,1,4405,,,,,,,,
college,-147.8,64.86,701,Mist,mist,50n,stations,240.28,235.82,238.15,242.04,1021,96,,,0.83,319,75,1578455918,US,1578426365,1578442095,-32400,5859699,College,200,,,,,,8047,1,7683,,,,,,,,
waingapu,120.26,-9.65,804,Clouds,overcast clouds,04d,model,301.73,301.44,301.73,301.73,1007,75,1007,1007,8.48,304,91,1578455918,ID,1578433521,1578479084,28800,1622318,Waingapu,200,,,,,,,,,,,,,,,,
burnie,145.91,-41.05,800,Clear,clear sky,01d,stations,293.15,291.79,293.15,293.15,1007,75,,,4.47,356,0,1578455919,AU,1578423198,1578477091,39600,2173125,Burnie,200,,,,,,,3,50154,,5.36,,,,,,
porto novo,-45.44,-23.68,803,Clouds,broken clouds,04n,stations,296.15,299.59,296.15,296.15,1013,88,,,1,190,75,1578455919,BR,1578471756,1578520408,-10800,6322184,Porto Novo,200,,,,,,8000,1,8434,,,,,,,,
macklin,-109.94,52.34,804,Clouds,overcast clouds,04n,model,257.09,249.26,257.09,257.09,1022,89,1022,936,6.2,129,100,1578455919,CA,1578410875,1578439407,-21600,6063429,Macklin,200,,,,,,,,,,,,,,,,
flinders,150.85,-34.58,500,Rain,light rain,10d,stations,298.06,295.56,296.48,299.82,1015,53,,,5.7,150,3,1578455920,AU,1578423130,1578474787,39600,6255012,Flinders,200,,,,,,3000,1,9594,0.75,,,,,,,
tondano,124.91,1.3,802,Clouds,scattered clouds,03d,stations,302.15,307.51,302.15,302.15,1010,79,,,1.5,60,40,1578455920,ID,1578433499,1578476873,28800,1623424,Tondano,200,,,,,,10000,1,9356,,,,,,,,
usolye,56.68,59.42,804,Clouds,overcast clouds,04n,stations,263.15,258.28,263.15,263.15,1023,86,,,2.4,184,93,1578455920,RU,1578459958,1578483174,18000,478269,Usolye,200,,,,,,,3,2001721,,,,,,,,
saint-michel-des-saints,-73.92,46.68,804,Clouds,overcast clouds,04n,model,266.57,261.59,266.57,266.57,1011,95,1011,949,3.07,174,100,1578455921,CA,1578400771,1578432217,-18000,6138802,Saint-Michel-des-Saints,200,,,,,,,,,,,,,,,,
bovenden,9.93,51.59,803,Clouds,broken clouds,04n,stations,278,272.88,276.48,279.82,1025,86,,,5.1,200,75,1578455921,DE,1578468270,1578497309,3600,2945726,Bovenden,200,,,,,,10000,1,1829,,,,,,,,
sembakung,117.25,3.82,804,Clouds,overcast clouds,04d,model,302.95,305.93,302.95,302.95,1011,62,1011,1009,2.25,75,87,1578455921,ID,1578435587,1578478463,28800,1627877,Sembakung,200,,,,,,,,,,,,,,,,
te anau,167.72,-45.41,803,Clouds,broken clouds,04d,model,285.55,282.18,285.55,285.55,1015,70,1015,961,3.84,287,77,1578455922,NZ,1578417046,1578472771,46800,2181625,Te Anau,200,,,,,,,,,,,,,,,,
tottori,134.23,35.5,520,Rain,light intensity shower rain,09d,stations,287.72,275.98,287.15,288.15,1002,62,,,15.9,270,75,1578455919,JP,1578435167,1578470730,32400,1849892,Tottori,200,,,,,,10000,1,8030,,22.6,,,,,,
